parcelid,zipcode,airconditioningtypeid,bathroomcnt,bedroomcnt,buildingqualitytypeid,calculatedbathnbr,yearbuilt,taxvaluedollarcnt,latitude,longitude,formatted.address,pred_tax_value
10711738,91304,1,3,4,4,3,1978,567112,34.220381,-118.620802,"8329 Faust Ave, Canoga Park, CA 91304, USA",559585
10711755,91304,1,3,3,4,3,1959,459844,34.22204,-118.62224,"8374 Maynard Ave, Canoga Park, CA 91304, USA",331792
10711805,91304,1,2,3,4,2,1973,384787,34.220427,-118.618549,"8333 Kentland Ave, West Hills, CA 91304, USA",538992
10711816,91304,1,2,4,4,2,1973,437176,34.22239,-118.618631,"8389 Kentland Ave, West Hills, CA 91304, USA",388624
10711858,91304,1,2,4,4,2,1973,382055,34.222544,-118.617961,"8394 Kentland Ave, West Hills, CA 91304, USA",263280
10711910,91304,,2,3,4,2,1960,76860,34.221864,-118.615739,"8374 Sausalito Ave, West Hills, CA 91304, USA",221183
10712086,91304,1,2,4,4,2,1974,384120,34.226039,-118.618527,"22559 Napa St, Canoga Park, CA 91304, USA",250539
10712162,91304,1,3,3,4,3,1964,695000,34.226833,-118.612917,"8560 Rudnick Ave, West Hills, CA 91304, USA",899924
10712163,91304,1,3,4,4,3,1962,618279,34.226843,-118.612422,"8563 Moorcroft Ave, West Hills, CA 91304, USA",539697
10712195,91304,1,3,3,4,3,1961,475000,34.223689,-118.612746,"22261 Chase St, Canoga Park, CA 91304, USA",361199
10712316,91304,1,4,4,4,4,1963,589149,34.228487,-118.61061,"8632 Farralone Ave, West Hills, CA 91304, USA",729052
10712345,91304,1,3,4,4,3,1966,123582,34.230301,-118.611987,"8788 Moorcroft Ave, Canoga Park, CA 91304, USA",639661
10712375,91304,1,2,4,4,2,1970,394473,34.231941,-118.610002,"8876 Moorcroft Ave, West Hills, CA 91304, USA",543965
10712391,91304,1,4,4,4,4,1979,750000,34.231673,-118.610168,"22159 Rayen St, West Hills, CA 91304, USA",788847
10712648,91304,1,3,3,4,3,1963,125077,34.220457,-118.632545,"8331 Woodlake Ave, Canoga Park, CA 91304, USA",622470
10712667,91304,,2,3,4,2,1963,649784,34.221329,-118.633007,"8344 Natalie Ln, West Hills, CA 91304, USA",391015
10712693,91304,1,3,4,4,3,1967,383410,34.222805,-118.632395,"8417 Denise Ln, West Hills, CA 91304, USA",455212
10712739,91304,1,2,4,4,2,1963,243866,34.221868,-118.632989,"8354 Natalie Ln, West Hills, CA 91304, USA",350693
10712766,91304,1,3,3,4,3,1967,339186,34.223731,-118.633166,"8451 Denise Ln, Canoga Park, CA 91304, USA",406323
10712798,91304,1,2,4,4,2,1963,586300,34.221609,-118.635601,"23327 Natalie Ln, West Hills, CA 91304, USA",453804
10712818,91304,1,3,4,4,3,1963,332322,34.220576,-118.637119,"23411 Schoenborn St, West Hills, CA 91304, USA",548454
10712916,91304,,2,4,4,2,1964,122312,34.219425,-118.641223,"8301 Hillary Dr, West Hills, CA 91304, USA",356547
10712919,91304,1,3,4,4,3,1964,635000,34.219434,-118.641979,"23620 Nadir St, West Hills, CA 91304, USA",447260
10713921,91304,,2,3,4,2,1958,210348,34.222098,-118.613493,"22300 Hackney St, Canoga Park, CA 91304, USA",347298
10713956,91304,,3,4,4,3,1959,98480,34.223208,-118.611436,"8435 Farralone Ave, Canoga Park, CA 91304, USA",481999
10714158,91304,1,3,4,7,3,1973,477978,34.230886,-118.602171,"8834 Topanga Canyon Blvd, Canoga Park, CA 91304, USA",553141
10714215,91304,,2,4,4,2,1960,90125,34.227651,-118.607854,"22056 Parthenia St, West Hills, CA 91304, USA",207325
10714236,91304,1,2,3,4,2,1963,739484,34.22836,-118.60973,"22160 Parthenia St, West Hills, CA 91304, USA",456380
10714293,91304,,3,4,4,3,1960,86647,34.224636,-118.606848,"22022 Malden St, Canoga Park, CA 91304, USA",462427
10714320,91304,,3,4,4,3,1960,605000,34.225361,-118.608778,"8544 Nevada Ave, West Hills, CA 91304, USA",575224
10714370,91304,,2,4,4,2,1960,240866,34.223884,-118.609435,"8501 Nevada Ave, Canoga Park, CA 91304, USA",395354
10714381,91304,,3,4,4,3,1959,612951,34.223206,-118.609258,"22130 Eccles St, Canoga Park, CA 91304, USA",405980
10714389,91304,,2,3,7,2,1959,260775,34.223051,-118.608051,"22120 Chase St, Canoga Park, CA 91304, USA",222333
10714397,91304,,2,3,7,2,1959,420000,34.222786,-118.608306,"8421 Nevada Ave, West Hills, CA 91304, USA",222364
10714444,91304,1,2,4,4,2,1970,110438,34.232679,-118.607208,"8919 Hanna Ave, Canoga Park, CA 91304, USA",317329
10714454,91304,1,3,4,4,3,1970,422978,34.232423,-118.606775,"8900 Hanna Ave, Canoga Park, CA 91304, USA",422390
10714463,91304,1,2,3,4,2,1970,251547,34.232235,-118.605872,"8901 Megan Pl, Canoga Park, CA 91304, USA",229097
10714470,91304,1,2,4,4,2,1969,575000,34.233211,-118.604584,"8972 Megan Ave, West Hills, CA 91304, USA",245562
10714509,91304,,2,3,7,2,1959,234779,34.221634,-118.608839,"22110 Hackney St, Canoga Park, CA 91304, USA",222334
10714574,91304,1,2,4,4,2,1973,267539,34.216689,-118.607026,"22026 Lanark St, Canoga Park, CA 91304, USA",251783
10714684,91304,1,2,3,4,2,1957,240723,34.217669,-118.607949,"8134 Burton St, Canoga Park, CA 91304, USA",407634
10714739,91304,,2,3,4,2,1957,77057,34.216244,-118.607583,"8019 Hanna Ave, Canoga Park, CA 91304, USA",321632
10714757,91304,,2,3,4,2,1957,382514,34.216101,-118.609816,"22146 Baltar St, Canoga Park, CA 91304, USA",179132
10714817,91304,,2,3,4,2,1957,282086,34.21892,-118.609914,"22149 Burton St, Canoga Park, CA 91304, USA",176224
10714852,91304,,2,3,4,2,1957,339656,34.21341,-118.60875,"7855 Glade Ave, Canoga Park, CA 91304, USA",171074
10714932,91304,,3,5,4,3,1958,426592,34.214333,-118.605969,"7909 Topanga Canyon Blvd, Canoga Park, CA 91304, USA",300645
10714954,91304,,2,3,4,2,1958,310296,34.213948,-118.60694,"7900 Hanna Ave, Canoga Park, CA 91304, USA",177830
10714961,91304,,2,3,4,2,1958,221993,34.214525,-118.606942,"7922 Hanna Ave, Canoga Park, CA 91304, USA",177830
10714972,91304,,2,4,7,2,1958,67466,34.212544,-118.60924,"22128 Elkwood St, Canoga Park, CA 91304, USA",221572
10714982,91304,,2,4,7,2,1958,433491,34.212195,-118.607426,"7827 Topanga Canyon Blvd, Canoga Park, CA 91304, USA",221584
10715001,91304,,2,3,7,2,1958,65225,34.213293,-118.610883,"7845 Farralone Ave, Canoga Park, CA 91304, USA",376668
10715028,91304,,2,4,7,2,1958,427000,34.21275,-118.613042,"7832 Nita Ave, Canoga Park, CA 91304, USA",289959
10715207,91304,,2,3,4,2,1959,399596,34.218102,-118.613055,"22317 Cantara St, Canoga Park, CA 91304, USA",236350
10715222,91304,,2,3,4,2,1959,451898,34.217631,-118.613535,"22330 Cantara St, Canoga Park, CA 91304, USA",308689
10715306,91304,1,2,3,4,2,1958,353306,34.214389,-118.610247,"7922 Farralone Ave, Canoga Park, CA 91304, USA",249273
10715331,91304,,2,4,7,2,1959,475000,34.211216,-118.607928,"7741 Glade Ave, Canoga Park, CA 91304, USA",290914
10715350,91304,,2,4,7,2,1963,217870,34.218412,-118.607033,"8201 Topanga Canyon Blvd, Canoga Park, CA 91304, USA",492698
10715360,91304,1,2,3,7,2,1960,311390,34.215719,-118.61649,"7956 Capistrano Ave, West Hills, CA 91304, USA",303046
10715412,91304,,2,3,7,2,1957,219277,34.218237,-118.620741,"22644 Burton St, Canoga Park, CA 91304, USA",309008
10715471,91304,1,2,3,7,2,1957,358252,34.217123,-118.619581,"8123 Sale Ave, Canoga Park, CA 91304, USA",474188
10715504,91304,1,3,4,4,3,1976,505284,34.209284,-118.620607,"7631 Faust Ave, Canoga Park, CA 91304, USA",519139
10715534,91304,,2,4,7,2,1957,302147,34.213694,-118.61796,"7857 Kentland Ave, Canoga Park, CA 91304, USA",216765
10715569,91304,,2,4,7,2,1957,436000,34.2143,-118.617398,"7918 Kentland Ave, Canoga Park, CA 91304, USA",216765
10715606,91304,,2,4,7,2,1957,60537,34.214821,-118.616433,"7938 Capistrano Ave, Canoga Park, CA 91304, USA",216765
10715615,91304,,2,4,7,2,1957,60537,34.213263,-118.61643,"7844 Capistrano Ave, Canoga Park, CA 91304, USA",216765
10715630,91304,,2,4,7,2,1957,407991,34.213264,-118.616036,"7845 Sausalito Ave, West Hills, CA 91304, USA",216765
10715637,91304,,2,4,7,2,1957,60537,34.214476,-118.616039,"7927 Sausalito Ave, West Hills, CA 91304, USA",217458
10715682,91304,,2,3,4,2,1957,453000,34.215342,-118.615076,"7957 Shoup Ave, Canoga Park, CA 91304, USA",221713
10715738,91304,,2,3,7,2,1959,335789,34.209738,-118.614084,"7653 Nita Ave, Canoga Park, CA 91304, USA",479103
10715771,91304,,2,3,7,2,1959,220266,34.210673,-118.615063,"7719 Shoup Ave, West Hills, CA 91304, USA",374879
10715807,91304,,2,3,7,2,1958,328476,34.211537,-118.616031,"7749 Sausalito Ave, West Hills, CA 91304, USA",376163
10715860,91304,1,3,4,4,3,1965,272516,34.210609,-118.618328,"7716 Sale Ave, Canoga Park, CA 91304, USA",329128
10715861,91304,1,3,4,4,3,1965,364760,34.210792,-118.618328,"7722 Sale Ave, Canoga Park, CA 91304, USA",398546
10715862,91304,1,3,4,4,3,1965,640000,34.210975,-118.618329,"7728 Sale Ave, West Hills, CA 91304, USA",509265
10715883,91304,,2,4,7,2,1959,218467,34.208931,-118.614316,"22353 Lull St, Canoga Park, CA 91304, USA",288682
10715980,91304,,2,4,7,2,1960,179359,34.21772,-118.617872,"8144 Kentland Ave, Canoga Park, CA 91304, USA",221355
10716066,91304,,2,3,7,2,1962,418039,34.214234,-118.621718,"7919 Ponce Ave, Canoga Park, CA 91304, USA",275391
10716133,91304,,2,3,7,2,1962,426000,34.21205,-118.620185,"7800 Faust Ave, West Hills, CA 91304, USA",258575
10716184,91304,,2,3,7,2,1962,114657,34.214238,-118.618891,"7917 Sale Ave, West Hills, CA 91304, USA",275408
10716254,91304,1,3,4,4,3,1965,455373,34.210759,-118.619256,"7724 Vicky Ave, Canoga Park, CA 91304, USA",329133
10716359,91304,,2,3,7,2,1956,464090,34.217369,-118.623341,"8130 Fallbrook Ave, West Hills, CA 91304, USA",229378
10716421,91304,,2,3,7,2,1956,466196,34.217919,-118.624077,"8208 McLaren Ave, West Hills, CA 91304, USA",303430
10716530,91304,,2,4,7,2,1957,518000,34.213116,-118.624621,"7831 Lena Ave, West Hills, CA 91304, USA",403376
10716542,91304,,2,3,7,2,1957,319578,34.215262,-118.624534,"7954 McLaren Ave, Canoga Park, CA 91304, USA",302103
10716548,91304,,2,5,7,2,1957,403211,34.214631,-118.623898,"7927 Fallbrook Ave, Canoga Park, CA 91304, USA",369447
10716614,91304,,2,3,7,2,1959,387337,34.209643,-118.622837,"22745 Lull St, Canoga Park, CA 91304, USA",278544
10716648,91304,,2,3,7,2,1956,96033,34.208888,-118.623683,"22805 Saticoy St, Canoga Park, CA 91304, USA",374436
10716711,91304,,2,3,4,2,1957,533000,34.20987,-118.626202,"7651 Lena Ave, West Hills, CA 91304, USA",264360
10716732,91304,,2,3,7,2,1959,368747,34.210673,-118.624604,"7708 Minstrel Ave, West Hills, CA 91304, USA",274604
10716733,91304,,2,3,7,2,1959,490000,34.210824,-118.624682,"7722 Minstrel Ave, Canoga Park, CA 91304, USA",278543
10716763,91304,,2,4,7,2,1957,422502,34.212098,-118.625937,"22909 Ingomar St, West Hills, CA 91304, USA",286601
10716784,91304,,2,3,7,2,1957,408128,34.213135,-118.626401,"22924 Arminta St, Canoga Park, CA 91304, USA",301526
10716787,91304,1,2,3,7,2,1957,491811,34.213115,-118.625691,"7843 Lena Ave, West Hills, CA 91304, USA",423655
10716887,91304,,2,3,7,2,1958,405793,34.213129,-118.627301,"22948 Arminta St, Canoga Park, CA 91304, USA",414492
10716958,91304,,2,3,7,2,1958,462000,34.21305,-118.63091,"7838 Quimby Ave, Canoga Park, CA 91304, USA",231726
10716965,91304,,2,3,7,2,1958,318351,34.212198,-118.630454,"7809 Sedan Ave, Canoga Park, CA 91304, USA",231107
10716971,91304,1,3,3,4,3,1958,468621,34.213187,-118.630457,"7845 Sedan Ave, West Hills, CA 91304, USA",360187
10717002,91304,1,3,4,4,3,1979,236464,34.211599,-118.630399,"7756 Quimby Ave, West Hills, CA 91304, USA",484766
10717081,91304,,2,3,7,2,1961,437059,34.209708,-118.628412,"7644 Ducor Ave, West Hills, CA 91304, USA",260261
10717105,91304,,2,3,7,2,1961,210695,34.210407,-118.627501,"7706 Royer Ave, West Hills, CA 91304, USA",259860
10717128,91304,,2,3,7,2,1961,493000,34.209904,-118.62894,"7653 Ducor Ave, Canoga Park, CA 91304, USA",306078
10717136,91304,,2,3,7,2,1961,229831,34.211481,-118.628945,"7749 Ducor Ave, Canoga Park, CA 91304, USA",276694
10717158,91304,,2,4,4,2,1962,403692,34.216205,-118.629961,"23062 Baltar St, Canoga Park, CA 91304, USA",90507
10717159,91304,1,3,4,4,3,1962,333918,34.216162,-118.629718,"23056 Baltar St, West Hills, CA 91304, USA",402813
10717162,91304,,2,3,4,2,1962,533735,34.216032,-118.628991,"23044 Baltar St, West Hills, CA 91304, USA",304711
10717198,91304,,2,3,4,2,1962,473896,34.216753,-118.630283,"23068 Lanark St, Canoga Park, CA 91304, USA",357833
10717684,91304,1,3,4,4,3,1987,780000,34.22686,-118.650806,"8591 Big Rock Trail, West Hills, CA 91304, USA",477056
10717744,91304,1,4,4,4,4,1988,986053,34.225391,-118.647313,"23915 Eagle Mountain St, West Hills, CA 91304, USA",1071795
10717891,91304,1,5,5,10,5,1992,801452,34.210404,-118.65501,"7624 Carmenita Ln, West Hills, CA 91304, USA",1901437
10717908,91304,1,3,5,1,3,1995,626500,34.210303,-118.656257,"24709 Stonegate Dr, Canoga Park, CA 91304, USA",610121
10717940,91304,1,3,5,1,3,1995,586185,34.207898,-118.65536,"7433 Graystone Dr, Canoga Park, CA 91304, USA",729424
10717957,91304,1,3,4,1,3,1995,650231,34.207828,-118.656658,"24543 Stonegate Dr, West Hills, CA 91304, USA",498431
10718011,91304,1,3,4,1,3,1995,466966,34.209433,-118.657888,"7518 Penobscot Dr, Canoga Park, CA 91304, USA",504478
10718045,91304,1,3,5,1,3,1995,993474,34.208783,-118.661319,"24652 Overland Dr, Canoga Park, CA 91304, USA",610359
10718129,91304,1,3,3,4,3,1983,743054,34.213004,-118.641205,"23610 Arminta St, West Hills, CA 91304, USA",594957
10718244,91304,1,3,4,4,3,1984,295516,34.214378,-118.642975,"23661 Blythe St, Canoga Park, CA 91304, USA",338803
10718302,91304,1,2,3,4,2,1981,322024,34.216685,-118.64225,"23644 Justice St, West Hills, CA 91304, USA",402639
10718320,91304,1,3,4,4,3,1981,472710,34.218895,-118.644934,"23751 Burton St, West Hills, CA 91304, USA",737691
10718335,91304,1,5,5,1,5,2012,958317,34.217892,-118.644733,"23727 Fitzgerald St, West Hills, CA 91304, USA",1357305
10718386,91304,1,3,4,4,3,1984,339347,34.212592,-118.646348,"7824 Valley Flores Dr, West Hills, CA 91304, USA",545055
10718415,91304,1,3,4,4,3,1986,570354,34.213981,-118.649901,"7911 Mencken Ave, West Hills, CA 91304, USA",739109
10718417,91304,1,3,4,4,3,1986,867000,34.214343,-118.64989,"24017 Meredith Ct, West Hills, CA 91304, USA",737109
10718451,91304,1,5,5,1,5,1987,983072,34.211386,-118.643891,"23690 Ingomar St, West Hills, CA 91304, USA",1148343
10718455,91304,1,3,4,1,3,1987,818372,34.211344,-118.644931,"23706 Ingomar St, West Hills, CA 91304, USA",1159618
10718555,91304,1,3,5,4,3,1964,443747,34.215556,-118.639023,"23510 Baltar St, West Hills, CA 91304, USA",328828
10718565,91304,1,3,4,4,3,1982,556161,34.215555,-118.639465,"8010 Maestro Ave, West Hills, CA 91304, USA",568808
10718792,91304,1,3,4,4,3,1965,645000,34.213944,-118.634452,"23264 Blythe St, West Hills, CA 91304, USA",455278
10718824,91304,1,2,4,4,2,1986,389691,34.215533,-118.644556,"23720 Baltar St, West Hills, CA 91304, USA",381618
10718838,91304,1,3,4,4,3,1986,608248,34.216696,-118.645663,"8046 Valley Flores Dr, West Hills, CA 91304, USA",686515
10718876,91304,1,3,4,4,3,1985,734385,34.212506,-118.650147,"23927 Ingomar St, Canoga Park, CA 91304, USA",401145
10718948,91304,1,2,3,4,2,1984,660872,34.214667,-118.645736,"7924 Valley Flores Dr, West Hills, CA 91304, USA",396749
10718981,91304,1,3,4,4,3,1986,460305,34.215212,-118.647614,"23852 Strathern St, West Hills, CA 91304, USA",739095
10718998,91304,1,3,4,4,3,1986,554368,34.215327,-118.64984,"23947 Strathern St, West Hills, CA 91304, USA",613736
10719033,91304,1,5,4,1,5,2001,843553,34.210945,-118.646015,"23739 Stagg St, West Hills, CA 91304, USA",1026577
10719087,91304,,2,3,7,2,1956,255307,34.207953,-118.627089,"22938 Saticoy St, Canoga Park, CA 91304, USA",308463
10719094,91307,,2,3,7,2,1956,530389,34.206718,-118.628044,"23001 Covello St, West Hills, CA 91307, USA",424924
10719143,91307,1,3,5,7,3,1956,623207,34.20626,-118.626781,"7501 Lena Ave, West Hills, CA 91307, USA",913013
10719230,91307,,2,3,7,2,1959,458000,34.204765,-118.623717,"22800 Runnymede St, West Hills, CA 91307, USA",489106
10719250,91307,,2,3,7,2,1960,343489,34.204437,-118.626047,"22907 Valerio St, West Hills, CA 91307, USA",485310
10719288,91307,,2,3,7,2,1959,182928,34.205382,-118.625035,"22845 Runnymede St, West Hills, CA 91307, USA",338705
10719321,91307,1,2,3,4,2,1977,164904,34.207002,-118.624562,"22836 Covello St, West Hills, CA 91307, USA",341054
10719364,91307,,2,3,7,2,1959,426386,34.205475,-118.623482,"7439 Fallbrook Ave, West Hills, CA 91307, USA",540170
10719477,91307,,2,3,7,2,1960,243164,34.203194,-118.625518,"22856 Leadwell St, West Hills, CA 91307, USA",597762
10719592,91307,,2,3,7,2,1956,64411,34.201661,-118.621117,"7214 Maynard Ave, West Hills, CA 91307, USA",494728
10719619,91307,,2,2,7,2,1956,361516,34.202446,-118.620227,"7250 Ponce Ave, West Hills, CA 91307, USA",440551
10719638,91307,,2,3,7,2,1956,242840,34.204746,-118.620623,"22641 Valerio St, West Hills, CA 91307, USA",520179
10719657,91307,,2,3,7,2,1956,239128,34.206369,-118.621349,"22660 Cohasset St, West Hills, CA 91307, USA",596811
10719680,91307,1,2,3,4,2,1956,118670,34.207614,-118.62187,"22713 Covello St, West Hills, CA 91307, USA",533604
10719735,91307,,2,3,7,2,1956,486448,34.206411,-118.620124,"22630 Cohasset St, West Hills, CA 91307, USA",583210
10719779,91307,,2,2,7,2,1956,141309,34.204402,-118.619234,"22600 Valerio St, West Hills, CA 91307, USA",600999
10719790,91307,,2,3,7,2,1956,292538,34.202344,-118.618575,"7244 Kentland Ave, Canoga Park, CA 91307, USA",424908
10719792,91307,,2,3,7,2,1956,60733,34.202918,-118.618274,"7300 Kentland Ave, West Hills, CA 91307, USA",424911
10719810,91307,,2,3,7,2,1956,407000,34.2057,-118.618453,"7430 Kentland Ave, Canoga Park, CA 91307, USA",424911
10719826,91307,,2,3,7,2,1956,341012,34.20569,-118.618096,"7431 Capistrano Ave, West Hills, CA 91307, USA",425689
10719832,91307,,2,4,7,2,1956,508917,34.205022,-118.617559,"7408 Capistrano Ave, West Hills, CA 91307, USA",535756
10719842,91307,,2,3,7,2,1956,435000,34.206932,-118.617562,"7522 Capistrano Ave, West Hills, CA 91307, USA",424912
10719863,91307,,2,3,7,2,1956,474596,34.20618,-118.616669,"7452 Asman Ave, Canoga Park, CA 91307, USA",425689
10719954,91307,1,3,4,4,3,1981,464623,34.201901,-118.616368,"7229 Sausalito Ave, West Hills, CA 91307, USA",660600
10720111,91307,,2,4,7,2,1964,478517,34.204059,-118.617553,"7351 Asman Ave, West Hills, CA 91307, USA",346777
10720158,91307,,2,3,7,2,1963,611987,34.203043,-118.615152,"7305 Shoup Ave, Canoga Park, CA 91307, USA",522643
10720168,91307,1,2,3,7,2,1964,391911,34.203222,-118.615532,"7314 Sausalito Ave, Canoga Park, CA 91307, USA",497006
10720221,91303,,1,3,7,1,1952,162603,34.207985,-118.605875,"7568 Topanga Canyon Blvd, Canoga Park, CA 91303, USA",256098
10720295,91303,,1,2,7,1,1918,87672,34.204375,-118.606692,"22016 Valerio St, Canoga Park, CA 91303, USA",-91943
10720359,91303,,2,3,7,2,1977,353585,34.201689,-118.606353,"7225 Topanga Canyon Blvd, Canoga Park, CA 91303, USA",211410
10720440,91303,,2,3,7,2,1950,60534,34.203095,-118.608045,"22057 Wyandotte St, Canoga Park, CA 91303, USA",531668
10720461,91303,,1,2,7,1,1940,126198,34.204002,-118.607551,"22041 Leadwell St, Canoga Park, CA 91303, USA",336716
10720466,91303,1,2,4,4,2,1947,520189,34.204001,-118.608544,"22109 Leadwell St, Canoga Park, CA 91303, USA",353797
10720470,91303,,1,1,7,1,1939,92339,34.204,-118.609205,"22131 Leadwell St, Canoga Park, CA 91303, USA",-137470
10720551,91303,,2,3,7,2,1948,218594,34.207982,-118.607563,"22046 Saticoy St, Canoga Park, CA 91303, USA",397068
10720589,91303,,2,3,7,2,1956,300883,34.206824,-118.613426,"22325 Cohasset St, Canoga Park, CA 91303, USA",424457
10720607,91303,,2,3,7,2,1956,465008,34.207476,-118.612993,"22319 Covello St, Canoga Park, CA 91303, USA",419520
10720660,91303,,2,3,7,2,1956,403480,34.206086,-118.611307,"22227 Runnymede St, Canoga Park, CA 91303, USA",420486
10720727,91303,,2,3,7,2,1956,199273,34.20489,-118.612114,"22250 Gifford St, Canoga Park, CA 91303, USA",419452
10720769,91303,,2,3,7,2,1956,389089,34.203377,-118.612457,"22300 Leadwell St, Canoga Park, CA 91303, USA",424464
10720814,91303,1,3,4,4,3,1965,435458,34.202613,-118.611896,"22248 Wyandotte St, Canoga Park, CA 91303, USA",494123
10720826,91303,1,2,4,4,2,1970,83385,34.20259,-118.613414,"22338 Wyandotte St, Canoga Park, CA 91303, USA",471449
10720964,91303,,2,3,7,2,1952,313529,34.196195,-118.606172,"6921 Topanga Canyon Blvd, Canoga Park, CA 91303, USA",357558
10721053,91303,,1,2,7,1,1952,168105,34.195819,-118.60852,"22109 Bassett St, Canoga Park, CA 91303, USA",272105
10721412,91307,,1,4,4,1,1962,506348,34.195294,-118.614545,"6856 Shoup Ave, Canoga Park, CA 91307, USA",280091
10721432,91303,1,2,4,4,2,1963,506000,34.196307,-118.614547,"22346 Schoolcraft St, Canoga Park, CA 91303, USA",321085
10721540,91307,1,3,3,4,3,1979,524000,34.200212,-118.616877,"7142 Asman Ave, West Hills, CA 91307, USA",483205
10721601,91307,1,2,3,4,2,1958,226958,34.198304,-118.622108,"7020 Maynard Ave, West Hills, CA 91307, USA",316738
10721630,91307,,2,5,4,2,1958,438942,34.198517,-118.621169,"7016 Ponce Ave, West Hills, CA 91307, USA",352795
10721653,91307,,2,3,4,2,1958,478634,34.197678,-118.621376,"22710 Vose St, West Hills, CA 91307, USA",382641
10721656,91307,,2,3,7,2,1962,258820,34.198968,-118.618483,"7085 Sale Ave, West Hills, CA 91307, USA",527514
10721741,91307,,2,4,7,2,1954,102265,34.197152,-118.618588,"22549 Marlin Pl, West Hills, CA 91307, USA",526464
10721777,91307,1,3,5,4,3,2007,691834,34.197515,-118.616284,"7011 Shoup Ave, West Hills, CA 91307, USA",663819
10721806,91307,,2,3,7,2,1959,429001,34.1963,-118.615997,"22435 Schoolcraft St, West Hills, CA 91307, USA",455438
10721817,91307,,2,5,7,2,1958,66865,34.196622,-118.618713,"22550 Marlin Pl, West Hills, CA 91307, USA",401086
10721842,91307,,2,3,7,2,1962,71580,34.195725,-118.620209,"22700 Schoolcraft St, West Hills, CA 91307, USA",389654
10721911,91307,,2,4,7,2,1960,545688,34.194373,-118.61652,"22452 Hartland St, Canoga Park, CA 91307, USA",409489
10721983,91303,1,2,3,4,2,1960,455000,34.194845,-118.610138,"6836 Farralone Ave, Canoga Park, CA 91303, USA",361721
10722012,91303,1,2,3,4,2,1960,467220,34.195692,-118.609899,"22153 Bassett St, Canoga Park, CA 91303, USA",379986
10722040,91303,1,2,3,4,2,1960,422975,34.196647,-118.611991,"22250 Marlin Pl, Canoga Park, CA 91303, USA",345963
10722050,91303,1,2,3,4,2,1960,468000,34.194917,-118.613375,"22321 Hartland St, Canoga Park, CA 91303, USA",380007
10722058,91303,1,2,3,4,2,1960,86240,34.195919,-118.61294,"22314 Schoolcraft St, Canoga Park, CA 91303, USA",379967
10722068,91303,1,2,3,4,2,1960,452000,34.197862,-118.610994,"22221 Hart St, Canoga Park, CA 91303, USA",345962
10722257,91307,1,3,5,4,3,2000,532214,34.199572,-118.617653,"7112 Capistrano Ave, Canoga Park, CA 91307, USA",782069
10722275,91307,1,3,4,4,3,2001,717888,34.198395,-118.61573,"7055 Shoup Ave, West Hills, CA 91307, USA",896914
10722417,91307,,2,3,7,2,1956,469189,34.200672,-118.624685,"22834 Sherman Way, West Hills, CA 91307, USA",429956
10722564,91307,,2,4,7,2,1958,551000,34.195641,-118.626421,"6944 Lena Ave, West Hills, CA 91307, USA",368416
10722609,91307,,3,4,7,3,1958,552930,34.19505,-118.627221,"6915 Lena Ave, West Hills, CA 91307, USA",481318
10722623,91307,,2,3,7,2,1958,509743,34.196442,-118.626498,"6953 Lena Ave, West Hills, CA 91307, USA",498374
10722645,91307,,2,3,7,2,1958,506014,34.195305,-118.627854,"6926 Royer Ave, West Hills, CA 91307, USA",498283
10722653,91307,,2,3,7,2,1958,68081,34.196583,-118.627341,"6966 Royer Ave, West Hills, CA 91307, USA",498264
10722794,91307,,2,3,7,2,1959,376234,34.193977,-118.633419,"23251 Vanowen St, West Hills, CA 91307, USA",496971
10722801,91307,,2,4,7,2,1959,69111,34.194351,-118.633419,"23250 Hartland St, Canoga Park, CA 91307, USA",410776
10722916,91307,1,3,5,4,3,1979,622187,34.200017,-118.628316,"23008 Enadia Way, West Hills, CA 91307, USA",662930
10723074,91304,1,3,4,4,3,1963,476425,34.207492,-118.6363,"7500 Chaminade Ave, West Hills, CA 91304, USA",513357
10723199,91307,,3,5,4,3,1964,92573,34.204414,-118.635515,"7417 Jason Ave, West Hills, CA 91307, USA",476263
10723214,91307,1,4,5,1,4,1990,519288,34.203927,-118.634284,"7402 Jason Ave, West Hills, CA 91307, USA",864804
10723215,91307,1,4,5,1,4,1990,567158,34.203806,-118.634014,"7325 Woodvale Ct, West Hills, CA 91307, USA",1181387
10723233,91304,1,3,5,4,3,1966,640000,34.204002,-118.636034,"23272 Valerio St, Canoga Park, CA 91304, USA",519781
10723241,91304,1,3,5,4,3,1964,560359,34.205371,-118.63664,"7443 Chaminade Ave, West Hills, CA 91304, USA",354633
10723311,91307,1,3,5,4,3,1966,332001,34.201308,-118.63606,"7236 Cirrus Way, West Hills, CA 91307, USA",638168
10723315,91307,1,3,4,4,3,1966,428401,34.202205,-118.635929,"7268 Cirrus Way, West Hills, CA 91307, USA",610831
10723353,91307,1,3,6,4,3,1969,132419,34.20147,-118.64112,"7232 Hyannis Dr, West Hills, CA 91307, USA",498689
10723446,91307,1,3,5,4,3,1971,499635,34.202456,-118.640742,"7259 Hyannis Dr, West Hills, CA 91307, USA",580697
10723474,91307,1,3,5,4,3,1971,348588,34.203801,-118.639237,"23394 Sandalwood St, West Hills, CA 91307, USA",581701
10723539,91307,1,2,3,4,2,1972,563862,34.20583,-118.643509,"23725 Sandalwood St, West Hills, CA 91307, USA",430396
10723540,91307,1,3,5,4,3,1972,483240,34.20565,-118.643634,"23725 Sandalwood St, West Hills, CA 91307, USA",580310
10723604,91307,1,2,3,4,2,1972,546587,34.203777,-118.642163,"23668 Gerrad Way, West Hills, CA 91307, USA",430284
10723646,91307,1,2,4,4,2,1972,397715,34.20144,-118.646773,"7220 Pomelo Dr, West Hills, CA 91307, USA",249946
10723653,91307,1,3,5,4,3,1973,187743,34.201304,-118.645471,"23760 Harwich Pl, West Hills, CA 91307, USA",641973
10723657,91307,1,3,5,4,3,1973,131706,34.201602,-118.644553,"7220 Darnoch Way, West Hills, CA 91307, USA",662053
10723668,91307,1,2,3,4,2,1974,417914,34.202334,-118.646294,"7254 Pomelo Dr, West Hills, CA 91307, USA",446739
10723793,91304,1,4,5,1,4,1995,793000,34.208919,-118.653573,"7530 Atherton Ln, West Hills, CA 91304, USA",802544
10723818,91304,1,3,4,4,3,1976,167204,34.211505,-118.640026,"23531 Spires St, West Hills, CA 91304, USA",517868
10723854,91304,1,3,5,4,3,1976,575639,34.210577,-118.639971,"7719 Maestro Ave, West Hills, CA 91304, USA",464028
10723887,91307,1,3,3,4,3,1977,271260,34.20613,-118.631572,"7501 Quimby Ave, West Hills, CA 91307, USA",640183
10723954,91304,1,2,3,4,2,1978,650051,34.210077,-118.641882,"7658 March Ave, West Hills, CA 91304, USA",381749
10723966,91304,1,2,4,4,2,1977,583856,34.210037,-118.645021,"23707 Posey Ln, West Hills, CA 91304, USA",498878
10724020,91304,1,1,3,4,1,1978,378270,34.208544,-118.643084,"7633 March Ave, West Hills, CA 91304, USA",312575
10724022,91304,1,3,4,4,3,1978,431329,34.208974,-118.643188,"7633 March Ave, Canoga Park, CA 91304, USA",692874
10724024,91304,1,2,4,4,2,1978,374943,34.209423,-118.643201,"7633 March Ave, Canoga Park, CA 91304, USA",497591
10724031,91304,1,4,4,4,4,1977,639211,34.209563,-118.644743,"23700 Posey Ln, West Hills, CA 91304, USA",859710
10724087,91304,1,3,4,4,3,1980,753868,34.210483,-118.633925,"23251 Keswick St, Canoga Park, CA 91304, USA",703538
10724088,91304,1,3,4,4,3,1980,551649,34.210471,-118.63362,"23237 Keswick St, West Hills, CA 91304, USA",703538
10724098,91304,1,2,3,4,2,1984,609239,34.20998,-118.631593,"23149 Kens Way, West Hills, CA 91304, USA",363976
10724103,91304,1,3,3,4,3,1984,352455,34.209636,-118.632197,"23160 Kens Way, Canoga Park, CA 91304, USA",591115
10724134,91304,1,5,5,1,5,1988,760163,34.209171,-118.651191,"7524 Sedgewick Ct, West Hills, CA 91304, USA",1331273
10724137,91304,1,5,5,1,5,1987,725675,34.209791,-118.65103,"7548 Sedgewick Ct, Canoga Park, CA 91304, USA",1334346
10724162,91304,1,3,4,1,3,1987,930288,34.209345,-118.651797,"7533 Sedgewick Ct, West Hills, CA 91304, USA",1004892
10724170,91304,1,3,4,1,3,1987,742883,34.207704,-118.651588,"24108 Clarington Dr, West Hills, CA 91304, USA",1004943
10724265,91307,1,4,4,1,4,1989,676000,34.205745,-118.631676,"7454 Woodlake Ave, West Hills, CA 91307, USA",759043
10724374,91304,1,5,5,10,5,1994,660367,34.207044,-118.647027,"7437 Liz Ct, West Hills, CA 91304, USA",1593701
10724384,91307,1,5,5,10,5,1996,1096478,34.206788,-118.648997,"7483 Rutherford Hill Dr, West Hills, CA 91307, USA",1598320
10724386,91307,1,5,5,10,5,1997,762357,34.206769,-118.649452,"7469 Rutherford Hill Dr, Canoga Park, CA 91307, USA",1872270
10724389,91307,1,5,5,10,5,1995,889000,34.205754,-118.648763,"7420 Cliffside Ct, West Hills, CA 91307, USA",1599559
10724425,91307,1,5,5,10,5,1998,1185000,34.204135,-118.650269,"24100 Lance Pl, West Hills, CA 91307, USA",1960499
10724427,91307,1,5,5,10,5,1992,1065000,34.204269,-118.650844,"24122 Hillhurst Dr, West Hills, CA 91307, USA",1707426
10724440,91307,1,5,5,10,5,1996,583521,34.205999,-118.649388,"7421 Cliffside Ct, Canoga Park, CA 91307, USA",1709673
10724452,91307,1,4,4,1,4,1997,496346,34.203113,-118.648754,"7252 Glenhaven Ct, West Hills, CA 91307, USA",936354
10724616,91307,,2,4,7,2,1959,62785,34.194863,-118.638923,"23423 Schoolcraft St, West Hills, CA 91307, USA",314108
10724626,91307,,2,3,7,2,1959,333620,34.19334,-118.638273,"23445 Vanowen St, West Hills, CA 91307, USA",496987
10724651,91307,,2,3,7,2,1959,502057,34.196359,-118.635704,"23325 Schoolcraft St, Canoga Park, CA 91307, USA",687626
10724672,91307,1,2,3,7,2,1959,470293,34.196022,-118.63488,"6945 Berquist Ave, Canoga Park, CA 91307, USA",496996
10724690,91307,,2,4,7,2,1959,597000,34.194279,-118.637707,"23387 Hartland St, Canoga Park, CA 91307, USA",488467
10724776,91307,,3,4,4,3,1959,238586,34.193679,-118.635681,"23331 Vanowen St, West Hills, CA 91307, USA",481142
10724784,91307,,2,3,7,2,1959,79031,34.193972,-118.634042,"23269 Vanowen St, West Hills, CA 91307, USA",496973
10724804,91307,,3,4,4,3,1961,237872,34.198865,-118.633766,"7138 Atheling Way, Canoga Park, CA 91307, USA",395681
10724828,91307,1,2,3,4,2,1964,557000,34.19816,-118.637315,"23429 Balmoral Ln, Canoga Park, CA 91307, USA",386528
10724871,91307,1,2,3,4,2,1961,615000,34.198408,-118.635375,"23316 Balmoral Ln, West Hills, CA 91307, USA",385861
10724883,91307,,2,4,4,2,1961,343522,34.198436,-118.634741,"23317 Balmoral Ln, West Hills, CA 91307, USA",299796
10724897,91307,,3,4,4,3,1961,87055,34.196604,-118.640429,"7021 Green Vista Cir, West Hills, CA 91307, USA",496307
10724899,91307,,2,3,4,2,1961,365785,34.196878,-118.639991,"7007 Green Vista Cir, West Hills, CA 91307, USA",386091
10724914,91307,1,2,4,4,2,1964,590000,34.196349,-118.642672,"6950 Larchwood Cir, West Hills, CA 91307, USA",294967
10724920,91307,1,2,4,4,2,1961,290678,34.197064,-118.638536,"7004 Hebrides Cir, West Hills, CA 91307, USA",501175
10724928,91307,,3,4,4,3,1961,95421,34.198853,-118.641227,"7123 Forest Hills Rd, West Hills, CA 91307, USA",423867
10724930,91307,,2,3,4,2,1961,450721,34.199238,-118.641234,"7131 Forest Hills Rd, West Hills, CA 91307, USA",392271
10724988,91307,1,2,3,4,2,1961,93991,34.200639,-118.64155,"7160 Forest Hills Rd, Canoga Park, CA 91307, USA",386201
10725041,91307,1,3,4,4,3,1961,516979,34.198201,-118.643441,"7040 Darnoch Way, West Hills, CA 91307, USA",624035
10725057,91307,,2,3,4,2,1962,445717,34.196452,-118.644285,"23801 Highlander Rd, West Hills, CA 91307, USA",384685
10725129,91307,,2,4,4,2,1962,492764,34.198029,-118.649887,"7037 Pomelo Dr, West Hills, CA 91307, USA",298325
10725164,91307,1,2,3,4,2,1962,525000,34.197028,-118.651935,"24206 St Edens Cir, West Hills, CA 91307, USA",384670
10725207,91307,,2,4,4,2,1963,310541,34.197873,-118.653893,"7010 Rivol Rd, West Hills, CA 91307, USA",303704
10725208,91307,,2,4,4,2,1963,258541,34.198051,-118.653927,"7010 Rivol Rd, West Hills, CA 91307, USA",297055
10725210,91307,,2,4,4,2,1962,573746,34.198087,-118.652618,"7014 Scarborough Peak Dr, West Hills, CA 91307, USA",298550
10725283,91307,1,2,4,4,2,1964,584000,34.199172,-118.652037,"7101 Salisbury Rd, West Hills, CA 91307, USA",418850
10725310,91307,1,2,4,4,2,1964,356977,34.198598,-118.651541,"7048 Salisbury Rd, West Hills, CA 91307, USA",450014
10725311,91307,1,3,3,4,3,1964,346467,34.198812,-118.651706,"7053 Salisbury Rd, West Hills, CA 91307, USA",482233
10725319,91307,,3,4,4,3,1964,100322,34.201266,-118.647742,"7208 Pomelo Dr, West Hills, CA 91307, USA",526930
10725347,91307,,3,4,4,3,1964,601760,34.201003,-118.645573,"23764 Harwich Pl, West Hills, CA 91307, USA",542850
10725372,91307,1,2,3,4,2,1964,555992,34.200791,-118.647094,"7048 Middlesbury Ridge Cir, West Hills, CA 91307, USA",588209
10725382,91307,,2,3,4,2,1964,129171,34.19825,-118.647755,"7040 Deveron Ridge Rd, West Hills, CA 91307, USA",386913
10725454,91307,1,3,4,4,3,1964,640000,34.199583,-118.644221,"7119 Darnoch Way, West Hills, CA 91307, USA",381927
10725590,91307,1,3,4,4,3,1986,625167,34.202109,-118.658733,"7127 Briarstone Ln, West Hills, CA 91307, USA",771253
10725592,91307,1,3,3,4,3,1985,616099,34.202514,-118.660517,"24654 Woodglade Ln, West Hills, CA 91307, USA",691562
10725782,91307,1,3,3,4,3,1987,322467,34.204727,-118.655929,"24501 Starlight Ln, West Hills, CA 91307, USA",581871
10726115,91367,1,4,4,4,4,1996,801000,34.180099,-118.665035,"5965 Nora Lynn Dr, Woodland Hills, CA 91367, USA",707423
10726151,91307,1,5,5,10,5,1989,1114698,34.185027,-118.661484,"24657 Gilmore St, Canoga Park, CA 91307, USA",2081491
10726165,91307,1,4,5,1,4,1997,1023000,34.185841,-118.663522,"24696 Wooded Vista, West Hills, CA 91307, USA",1167095
10726179,91307,1,3,4,4,3,1967,505106,34.186856,-118.659846,"24564 Gilmore St, West Hills, CA 91307, USA",616715
10726240,91307,1,3,4,4,3,1967,360716,34.184571,-118.658401,"6226 Pat Ave, Canoga Park, CA 91307, USA",602793
10726289,91367,1,2,4,4,2,1966,99913,34.1836,-118.66208,"24621 Calvert St, Woodland Hills, CA 91367, USA",437919
10726293,91367,1,3,4,4,3,1967,497222,34.183325,-118.657526,"6160 Jared Ct, Woodland Hills, CA 91367, USA",527988
10726368,91367,1,3,4,4,3,1966,662986,34.178415,-118.65714,"24460 Clipstone St, Woodland Hills, CA 91367, USA",591849
10726395,91367,1,2,3,4,2,1975,217654,34.178854,-118.655696,"24345 Clipstone St, Woodland Hills, CA 91367, USA",424996
10726445,91367,1,4,5,4,4,1966,569796,34.181628,-118.657708,"6110 Pat Ave, Woodland Hills, CA 91367, USA",733610
10726505,91367,1,4,5,4,4,1967,756860,34.178872,-118.659146,"5952 Ellenview Ave, Woodland Hills, CA 91367, USA",822881
10726509,91367,1,3,4,4,3,1967,378749,34.17974,-118.659069,"5982 Ellenview Ave, Woodland Hills, CA 91367, USA",590629
10726515,91367,1,3,5,4,3,1966,494360,34.178861,-118.660221,"5945 Ellenview Ave, Woodland Hills, CA 91367, USA",569043
10726564,91367,1,3,3,4,3,1966,684173,34.181591,-118.660388,"6100 Maury Ave, Woodland Hills, CA 91367, USA",938474
10726627,91367,1,2,4,4,2,1964,101949,34.176997,-118.656937,"5868 Fairhaven Ave, Woodland Hills, CA 91367, USA",371570
10726628,91367,1,2,3,4,2,1964,391314,34.177409,-118.656201,"5901 Valerie Ave, Woodland Hills, CA 91367, USA",429117
10726671,91307,1,3,4,4,3,1969,404506,34.187598,-118.655283,"6460 Gilmore St, West Hills, CA 91307, USA",614153
10726672,91307,1,3,4,4,3,1969,775000,34.185791,-118.656857,"6426 Ellenview Ave, West Hills, CA 91307, USA",614221
10726710,91307,1,3,4,4,3,1976,311109,34.185017,-118.655421,"24335 Victory Blvd, West Hills, CA 91307, USA",615464
10726715,91367,1,3,5,4,3,1979,589263,34.177007,-118.664486,"24748 Eilat St, Woodland Hills, CA 91367, USA",656314
10726721,91367,1,4,4,1,4,1979,780086,34.177863,-118.664039,"5914 Woodland View Dr, Woodland Hills, CA 91367, USA",1246239
10726729,91367,1,4,5,1,4,1979,595707,34.178674,-118.66289,"5942 Rod Ave, Woodland Hills, CA 91367, USA",794798
10726735,91367,1,4,5,1,4,1998,1152686,34.176932,-118.665605,"24800 Eilat St, Woodland Hills, CA 91367, USA",1092373
10726756,91367,1,5,5,1,5,1988,922254,34.178507,-118.664536,"5939 Woodland View Dr, Woodland Hills, CA 91367, USA",1644814
10726773,91367,1,5,4,1,5,1996,964331,34.17819,-118.665766,"5916 Vista De La Luz, Woodland Hills, CA 91367, USA",1078139
10726793,91367,1,4,5,1,4,1998,781200,34.177468,-118.665909,"24825 Eilat St, Woodland Hills, CA 91367, USA",1060578
10726832,91367,1,4,5,1,4,1984,958039,34.178867,-118.663892,"5952 Woodland View Dr, Woodland Hills, CA 91367, USA",1052631
10726837,91367,1,4,4,1,4,1986,750645,34.183436,-118.663432,"24701 Calvert St, Woodland Hills, CA 91367, USA",1023935
10726877,91367,1,4,4,1,4,1987,773756,34.182028,-118.666043,"6167 Woodland View Dr, Woodland Hills, CA 91367, USA",1044364
10726941,91307,1,3,4,4,3,1994,696695,34.184416,-118.661168,"6211 Ellenview Ave, Canoga Park, CA 91307, USA",886391
10726942,91307,,2,3,7,2,1960,492000,34.187844,-118.653588,"24230 Hamlin St, West Hills, CA 91307, USA",496249
10726944,91307,,2,3,7,2,1960,357190,34.187509,-118.65363,"6457 Neddy Ave, West Hills, CA 91307, USA",381102
10726964,91307,,2,3,7,2,1960,208223,34.186528,-118.653753,"6427 Neddy Ave, West Hills, CA 91307, USA",351372
10726966,91307,,2,3,7,2,1960,300515,34.186199,-118.653792,"6415 Neddy Ave, West Hills, CA 91307, USA",469193
10727036,91307,,2,3,7,2,1960,568000,34.186368,-118.650765,"24115 Gilmore St, West Hills, CA 91307, USA",452019
10727043,91307,1,2,3,4,2,1960,299008,34.186653,-118.649343,"24027 Gilmore St, West Hills, CA 91307, USA",295211
10727067,91307,,2,3,7,2,1960,429609,34.187596,-118.651084,"24112 Hamlin St, West Hills, CA 91307, USA",537280
10727091,91307,,2,3,7,2,1960,437584,34.188121,-118.646361,"23831 Mobile St, West Hills, CA 91307, USA",348869
10727097,91307,,2,3,7,2,1960,455375,34.188574,-118.645861,"23819 Mobile St, West Hills, CA 91307, USA",409027
10727141,91307,,2,3,7,2,1961,68289,34.187575,-118.644809,"6434 Kenwater Ave, West Hills, CA 91307, USA",498486
10727148,91307,,2,3,7,2,1960,481053,34.18787,-118.645098,"6431 Kenwater Ave, Canoga Park, CA 91307, USA",525776
10727173,91307,,2,3,7,2,1960,480000,34.189686,-118.643237,"6551 Platt Ave, Canoga Park, CA 91307, USA",345299
10727186,91367,1,2,4,7,2,1960,263906,34.186913,-118.64328,"6401 Platt Ave, Woodland Hills, CA 91367, USA",412359
10727201,91307,1,2,4,4,2,1964,387272,34.188463,-118.642722,"6460 Platt Ave, West Hills, CA 91307, USA",289218
10727204,91307,1,4,4,4,4,1964,573239,34.18898,-118.642638,"6527 N Platt Ave, West Hills, CA 91307, USA",661759
10727236,91307,,2,3,7,2,1960,67877,34.186576,-118.647187,"23925 Victory Blvd, Canoga Park, CA 91307, USA",353513
10727258,91307,,2,4,7,2,1960,223588,34.18625,-118.648802,"24015 Victory Blvd, West Hills, CA 91307, USA",350051
10727293,91307,,2,3,7,2,1960,257470,34.185159,-118.652308,"24201 Victory Blvd, West Hills, CA 91307, USA",345267
10727304,91307,1,2,3,7,2,1960,539000,34.185716,-118.651439,"24139 Victory Blvd, West Hills, CA 91307, USA",556004
10727369,91367,,2,3,7,2,1960,60330,34.185402,-118.648132,"24000 Victory Blvd, Woodland Hills, CA 91367, USA",275418
10727430,91367,1,2,3,7,2,1960,63389,34.185073,-118.645391,"23842 Friar St, Woodland Hills, CA 91367, USA",275438
10727434,91367,,2,4,7,2,1960,306913,34.185227,-118.644616,"23818 Friar St, Woodland Hills, CA 91367, USA",276621
10727451,91367,,2,3,7,2,1960,548000,34.184479,-118.645207,"23813 Sylvan St, Woodland Hills, CA 91367, USA",568398
10727481,91367,,2,4,7,2,1960,64414,34.184321,-118.649064,"24030 Friar St, Woodland Hills, CA 91367, USA",274120
10727491,91367,,2,4,7,2,1960,426400,34.184717,-118.647133,"23918 Friar St, Woodland Hills, CA 91367, USA",377262
10727513,91367,1,2,3,7,2,1960,319581,34.183483,-118.653146,"24244 Friar St, Woodland Hills, CA 91367, USA",280098
10727528,91367,,2,4,7,2,1960,429519,34.182675,-118.652206,"24057 Sylvan St, Woodland Hills, CA 91367, USA",336099
10727655,91367,,2,3,7,2,1960,68089,34.182569,-118.643536,"6155 Platt Ave, Woodland Hills, CA 91367, USA",431924
10727684,91367,,2,3,7,2,1960,69520,34.18283,-118.642536,"6166 Platt Ave, Woodland Hills, CA 91367, USA",456212
10727755,91307,,2,3,7,2,1960,575000,34.193316,-118.646415,"23848 Vanowen St, West Hills, CA 91307, USA",495683
10727766,91307,,2,4,7,2,1959,315889,34.193023,-118.64726,"23915 Welby Way, West Hills, CA 91307, USA",410773
10727791,91307,,2,3,7,2,1960,65639,34.193909,-118.65058,"24106 Vanowen St, Canoga Park, CA 91307, USA",495673
10727801,91307,,3,4,7,3,1961,313432,34.193729,-118.651738,"24139 Welby Way, West Hills, CA 91307, USA",665436
10727805,91307,,2,3,7,2,1961,67684,34.193871,-118.652566,"24221 Welby Way, West Hills, CA 91307, USA",494907
10727832,91307,,2,3,7,2,1960,398876,34.194614,-118.654902,"24336 Vanowen St, Canoga Park, CA 91307, USA",626751
10727840,91307,1,2,3,7,2,1960,538548,34.193005,-118.655227,"6707 Neddy Ave, Canoga Park, CA 91307, USA",495704
10727864,91307,,2,3,7,2,1960,262157,34.19236,-118.655689,"6658 Franrivers Ave, West Hills, CA 91307, USA",496267
10727865,91307,1,2,4,7,2,1960,150393,34.192546,-118.655685,"6662 Franrivers Ave, Canoga Park, CA 91307, USA",640683
10727887,91307,,2,4,7,2,1960,76879,34.19151,-118.65391,"24215 Kittridge St, Canoga Park, CA 91307, USA",409518
10727910,91307,,2,3,7,2,1960,231946,34.192983,-118.653202,"24225 Archwood St, Canoga Park, CA 91307, USA",495716
10727939,91307,,2,3,7,2,1960,64817,34.192837,-118.651475,"24131 Archwood St, West Hills, CA 91307, USA",407597
10727947,91307,,2,3,7,2,1960,515000,34.192576,-118.649885,"24033 Archwood St, West Hills, CA 91307, USA",496238
10727990,91307,,2,3,7,2,1959,492120,34.19221,-118.647631,"23927 Archwood St, West Hills, CA 91307, USA",497578
10728052,91307,,2,3,7,2,1959,504889,34.191264,-118.642057,"6652 Platt Ave, West Hills, CA 91307, USA",497582
10728095,91307,1,2,3,7,2,1959,100003,34.191318,-118.647074,"23901 Kittridge St, West Hills, CA 91307, USA",557147
10728123,91307,,2,3,7,2,1960,269547,34.192089,-118.65,"24030 Archwood St, West Hills, CA 91307, USA",495697
10728155,91307,,2,3,7,2,1959,88234,34.190821,-118.649715,"24021 Lemay St, West Hills, CA 91307, USA",594224
10728200,91307,,2,3,7,2,1960,68906,34.188069,-118.651547,"24115 Hamlin St, Canoga Park, CA 91307, USA",496255
10728250,91307,,2,3,7,2,1960,68497,34.190002,-118.653434,"6568 Neddy Ave, West Hills, CA 91307, USA",496230
10728276,91307,1,2,3,7,2,1960,481642,34.189094,-118.654103,"6536 Franrivers Ave, Canoga Park, CA 91307, USA",495703
10728336,91307,1,2,3,7,2,1960,535000,34.188801,-118.649422,"6509 Lockhurst Dr, West Hills, CA 91307, USA",465981
10728373,91307,1,2,4,7,2,1960,70712,34.188906,-118.64681,"23907 Hamlin St, West Hills, CA 91307, USA",350057
10728389,91307,,2,3,7,2,1960,182244,34.189314,-118.646548,"23831 Hamlin St, West Hills, CA 91307, USA",348856
10728399,91307,,2,3,7,2,1961,59314,34.190424,-118.642492,"6617 N Platt Ave, West Hills, CA 91307, USA",347572
10728413,91307,,2,3,7,2,1961,64963,34.190125,-118.643564,"23721 Haynes St, Canoga Park, CA 91307, USA",347589
10728443,91307,1,2,3,7,2,1960,449802,34.195494,-118.6545,"24324 Hartland St, Canoga Park, CA 91307, USA",381078
10728455,91307,,2,3,7,2,1960,224700,34.196005,-118.654512,"24335 Hartland St, West Hills, CA 91307, USA",607434
10728500,91307,1,3,3,4,3,1960,332537,34.195027,-118.651671,"24200 Hartland St, West Hills, CA 91307, USA",772312
10728597,91307,,2,4,7,2,1960,468233,34.194058,-118.64441,"23756 Hartland St, Canoga Park, CA 91307, USA",409497
10728657,91367,1,2,3,4,2,1963,535736,34.178908,-118.635368,"23320 Aetna St, Woodland Hills, CA 91367, USA",333684
10728661,91367,1,4,4,4,4,1963,152095,34.178919,-118.634159,"23270 Aetna St, Woodland Hills, CA 91367, USA",811746
10728675,91367,1,4,6,4,4,1955,653364,34.1784,-118.634789,"23277 W Oxnard St, Woodland Hills, CA 91367, USA",1089286
10728687,91367,1,2,4,4,2,1965,93178,34.178817,-118.637339,"23416 Aetna St, Woodland Hills, CA 91367, USA",320844
10728727,91367,1,2,4,4,2,1965,536857,34.179775,-118.637164,"6010 Sadring Ave, Woodland Hills, CA 91367, USA",382803
10728764,91367,1,2,3,4,2,1957,593000,34.180345,-118.640581,"6038 Manton Ave, Woodland Hills, CA 91367, USA",330195
10728797,91367,,2,4,4,2,1959,584706,34.179858,-118.641089,"6023 Manton Ave, Woodland Hills, CA 91367, USA",268364
10728870,91367,,2,4,7,2,1959,507500,34.185324,-118.637786,"6314 Glide Ave, Woodland Hills, CA 91367, USA",277908
10728892,91367,1,3,4,7,3,1959,438941,34.184976,-118.637628,"6308 Glide Ave, Woodland Hills, CA 91367, USA",460157
10728959,91367,1,2,4,7,2,1961,180976,34.18233,-118.638686,"6141 Glide Ave, Woodland Hills, CA 91367, USA",334841
10729040,91367,,2,3,4,2,1956,95634,34.18114,-118.633941,"23271 Calvert St, Woodland Hills, CA 91367, USA",342499
10729103,91367,1,3,3,4,3,1959,593000,34.183498,-118.635735,"6276 Jackie Ave, Woodland Hills, CA 91367, USA",391610
10729123,91367,,2,3,7,2,1959,268542,34.183996,-118.636834,"6280 Callicott Ave, Woodland Hills, CA 91367, USA",276724
10729159,91367,,2,3,7,2,1959,491630,34.186132,-118.635445,"23330 Victory Blvd, Woodland Hills, CA 91367, USA",390952
10729240,91367,1,3,4,4,3,1951,694128,34.185225,-118.63083,"23124 Friar St, Woodland Hills, CA 91367, USA",616126
10729361,91307,1,3,3,4,3,1957,550000,34.190351,-118.632908,"6617 Bobbyboyar Ave, West Hills, CA 91307, USA",437749
10729397,91307,,2,4,7,2,1957,509000,34.19105,-118.631927,"6643 Woodlake Ave, West Hills, CA 91307, USA",336000
10729404,91307,1,3,4,7,3,1957,568537,34.192265,-118.631925,"6711 Woodlake Ave, Canoga Park, CA 91307, USA",482215
10729455,91307,,2,4,7,2,1957,247119,34.189249,-118.631828,"6533 Woodlake Ave, West Hills, CA 91307, USA",339347
10729475,91307,1,2,4,7,2,1957,556908,34.188413,-118.63222,"6500 Bobbyboyar Ave, West Hills, CA 91307, USA",456326
10729495,91307,1,2,4,7,2,1957,451000,34.187573,-118.632618,"23251 Gilmore St, West Hills, CA 91307, USA",336001
10729514,91307,,2,4,7,2,1957,219762,34.18885,-118.630898,"6521 Dannyboyar Ave, West Hills, CA 91307, USA",338496
10729540,91307,,2,4,7,2,1957,389351,34.186721,-118.630853,"23119 Victory Blvd, West Hills, CA 91307, USA",338557
10729725,91307,,2,4,7,2,1959,65022,34.189243,-118.63504,"23309 Hamlin St, West Hills, CA 91307, USA",348827
10729740,91307,,2,3,7,2,1959,129995,34.191639,-118.633912,"6661 Melba Ave, West Hills, CA 91307, USA",496987
10729831,91307,,2,3,7,2,1959,525000,34.192455,-118.636983,"23400 Welby Way, West Hills, CA 91307, USA",496963
10729850,91307,1,2,3,7,2,1959,69925,34.192619,-118.639047,"6715 Lederer Ave, Canoga Park, CA 91307, USA",496982
10729886,91307,,2,3,7,2,1959,160819,34.19276,-118.638293,"23442 Vanowen St, West Hills, CA 91307, USA",496981
10729939,91307,1,2,4,7,2,1960,96562,34.189598,-118.639763,"6544 Gross Ave, Canoga Park, CA 91307, USA",601831
10730071,91307,,2,3,7,2,1957,524595,34.187525,-118.630212,"23055 Gilmore St, West Hills, CA 91307, USA",466930
10730075,91307,,2,4,7,2,1957,426400,34.188185,-118.63022,"23056 Mobile St, West Hills, CA 91307, USA",457755
10730129,91307,,2,3,7,2,1957,251612,34.188753,-118.629299,"23026 Hamlin St, Canoga Park, CA 91307, USA",411471
10730143,91307,1,2,4,7,2,1957,569000,34.189248,-118.628308,"23001 Hamlin St, West Hills, CA 91307, USA",370022
10730227,91307,,2,4,7,2,1957,6.00E+05,34.19089,-118.628805,"6637 Royer Ave, Canoga Park, CA 91307, USA",593854
10730249,91307,,3,4,7,3,1957,114806,34.190716,-118.629205,"6628 Sedan Ave, West Hills, CA 91307, USA",640873
10730297,91307,,2,4,7,2,1957,416994,34.193413,-118.629475,"23046 Vanowen St, West Hills, CA 91307, USA",541557
10730300,91307,,3,3,4,3,1957,207096,34.193411,-118.630096,"23100 Vanowen St, West Hills, CA 91307, USA",437739
10730312,91307,,2,4,7,2,1957,525000,34.193044,-118.62833,"23001 Welby Way, Canoga Park, CA 91307, USA",336834
10730327,91307,1,3,4,4,3,1979,527672,34.192355,-118.620623,"22622 Vanowen St, West Hills, CA 91307, USA",471231
10730362,91307,1,2,4,7,2,1957,134711,34.191744,-118.622179,"22711 Kittridge St, West Hills, CA 91307, USA",369682
10730373,91307,,3,3,7,3,1957,66049,34.191743,-118.61962,"22615 Kittridge St, West Hills, CA 91307, USA",549794
10730382,91307,,2,4,7,2,1957,439304,34.191915,-118.617901,"6701 Kentland Ave, Canoga Park, CA 91307, USA",369680
10730396,91307,,2,4,7,2,1957,77269,34.189529,-118.621586,"6544 Ponce Ave, Canoga Park, CA 91307, USA",571305
10730439,91307,,2,3,7,2,1958,418039,34.188409,-118.620778,"22643 Mobile St, West Hills, CA 91307, USA",498268
10730490,91307,,2,4,7,2,1957,119572,34.193442,-118.617211,"22514 Vanowen St, West Hills, CA 91307, USA",540135
10730582,91307,,3,3,7,3,1957,74004,34.191402,-118.616394,"6644 Capistrano Ave, West Hills, CA 91307, USA",549790
10730602,91307,,3,4,7,3,1957,481565,34.192121,-118.617335,"6706 Kentland Ave, West Hills, CA 91307, USA",586077
10730654,91307,,2,3,4,2,1956,128677,34.188058,-118.614629,"6455 Shoup Ave, West Hills, CA 91307, USA",815963
10730671,91307,,2,4,7,2,1959,206842,34.189831,-118.614502,"6550 Shoup Ave, West Hills, CA 91307, USA",410782
10730712,91307,,2,4,7,2,1958,72565,34.187125,-118.618502,"22540 Gilmore St, West Hills, CA 91307, USA",412822
10730748,91307,,2,4,7,2,1958,442389,34.188301,-118.621977,"6501 Ponce Ave, Canoga Park, CA 91307, USA",412072
10730750,91307,,2,3,7,2,1958,515000,34.187777,-118.622183,"22710 Mobile St, West Hills, CA 91307, USA",498268
10730786,91307,,2,4,7,2,1959,84766,34.188551,-118.617367,"6506 Capistrano Ave, West Hills, CA 91307, USA",411012
10730788,91307,,2,4,7,2,1959,397138,34.188446,-118.616724,"6514 Capistrano Ave, West Hills, CA 91307, USA",410887
10730799,91307,,2,4,7,2,1959,281583,34.189335,-118.615488,"6536 Sausalito Ave, Canoga Park, CA 91307, USA",410796
10730812,91307,,2,3,7,2,1959,522881,34.189196,-118.616701,"6530 Capistrano Ave, West Hills, CA 91307, USA",524464
10731000,91367,,2,3,4,2,1955,102357,34.180496,-118.628174,"23020 Calvert St, Woodland Hills, CA 91367, USA",306268
10731181,91367,1,4,5,1,4,1947,1593779,34.182304,-118.625798,"22904 Erwin St, Woodland Hills, CA 91367, USA",965768
10731184,91367,1,3,4,4,3,1950,908104,34.181486,-118.625052,"22851 Calvert St, Woodland Hills, CA 91367, USA",954803
10731185,91367,1,3,5,4,3,1948,1043478,34.181487,-118.624754,"22845 Calvert St, Woodland Hills, CA 91367, USA",710738
10731199,91367,1,4,4,4,4,1953,966874,34.182344,-118.626195,"22912 Erwin St, Woodland Hills, CA 91367, USA",1170911
10731201,91367,,2,3,7,2,1952,370433,34.180671,-118.622801,"6052 Fallbrook Ave, Woodland Hills, CA 91367, USA",352269
10731202,91367,,1,3,7,1,1952,518000,34.180507,-118.622801,"6046 Fallbrook Ave, Woodland Hills, CA 91367, USA",168107
10731209,91367,1,4,5,4,4,1947,1220672,34.180503,-118.624752,"22840 Calvert St, Woodland Hills, CA 91367, USA",1190940
10731211,91367,,2,3,7,2,1950,89708,34.180501,-118.625396,"22900 Calvert St, Woodland Hills, CA 91367, USA",529631
10731216,91367,,3,3,4,3,1942,112150,34.180348,-118.626615,"22936 Calvert St, Woodland Hills, CA 91367, USA",769965
10731224,91367,,3,3,4,3,1953,215538,34.179663,-118.62579,"22907 W Oxnard St, Woodland Hills, CA 91367, USA",777776
10731242,91367,,2,3,7,2,1952,525802,34.18051,-118.621028,"22660 Calvert St, Woodland Hills, CA 91367, USA",634569
10731252,91367,1,2,3,7,2,1927,548933,34.179677,-118.618645,"22555 W Oxnard St, Woodland Hills, CA 91367, USA",530594
10731258,91367,1,4,4,1,4,1989,1357000,34.179673,-118.620679,"22641 W Oxnard St, Woodland Hills, CA 91367, USA",1513963
10731297,91367,,1,4,7,1,1948,360558,34.181816,-118.622042,"22736 Erwin St, Woodland Hills, CA 91367, USA",293802
10731306,91367,,2,3,7,2,1953,482000,34.183133,-118.622046,"22723 Erwin St, Woodland Hills, CA 91367, USA",402971
10731407,91367,1,3,4,4,3,1963,776000,34.184892,-118.613984,"6300 Shoup Ave, Woodland Hills, CA 91367, USA",555521
10731411,91367,1,4,5,4,4,1963,540930,34.185268,-118.615468,"22416 Friar St, Woodland Hills, CA 91367, USA",769024
10731436,91367,1,3,4,4,3,1963,284511,34.184902,-118.616235,"22439 Sylvan St, Woodland Hills, CA 91367, USA",555490
10731473,91367,1,3,4,4,3,1964,130509,34.179506,-118.615413,"22425 W Oxnard St, Woodland Hills, CA 91367, USA",577576
10731504,91367,1,3,5,4,3,1965,468275,34.18325,-118.615145,"6225 Shoup Ave, Woodland Hills, CA 91367, USA",642664
10731506,91367,1,3,4,4,3,1964,657082,34.182835,-118.615463,"6201 Shoup Ave, Woodland Hills, CA 91367, USA",613049
10731578,91367,1,4,5,4,4,2001,906052,34.177654,-118.61864,"22545 Califa St, Woodland Hills, CA 91367, USA",963082
10731710,91367,,2,3,4,2,1955,487448,34.174459,-118.618459,"22614 Miranda St, Woodland Hills, CA 91367, USA",243935
10731719,91367,,2,2,4,2,1955,608892,34.17284,-118.618726,"5624 Faust Ave, Woodland Hills, CA 91367, USA",353422
10731730,91367,,2,5,4,2,1955,435806,34.173011,-118.618341,"5607 Capistrano Ave, Woodland Hills, CA 91367, USA",178277
10731733,91367,,2,2,4,2,1958,567834,34.172576,-118.619248,"5623 Sale Ave, Woodland Hills, CA 91367, USA",256089
10731773,91367,,2,3,7,2,1954,438941,34.17226,-118.621994,"22723 Burbank Blvd, Woodland Hills, CA 91367, USA",416582
10731827,91367,1,2,3,7,2,1953,383486,34.17165,-118.621583,"22708 Burbank Blvd, Woodland Hills, CA 91367, USA",345642
10731891,91367,1,2,4,7,2,1953,594828,34.17129,-118.615497,"22427 Berdon St, Woodland Hills, CA 91367, USA",454629
10731892,91367,,2,3,7,2,1954,472600,34.171291,-118.615331,"22417 Berdon St, Woodland Hills, CA 91367, USA",308866
10731907,91367,,3,4,7,3,1955,593000,34.170755,-118.615,"5523 Shoup Ave, Woodland Hills, CA 91367, USA",518010
10731964,91367,,2,3,7,2,1954,379129,34.170747,-118.619365,"22608 Berdon St, Woodland Hills, CA 91367, USA",264817
10731967,91367,1,3,4,4,3,1953,634000,34.170746,-118.620026,"22626 Berdon St, Woodland Hills, CA 91367, USA",336601
10731969,91367,,2,4,7,2,1964,223187,34.170377,-118.619034,"22603 Dolorosa St, Woodland Hills, CA 91367, USA",351898
10731984,91367,,1,2,7,1,1952,415739,34.170744,-118.620754,"22652 Berdon St, Woodland Hills, CA 91367, USA",235795
10731990,91367,,2,4,7,2,1953,536000,34.170743,-118.621746,"22716 Berdon St, Woodland Hills, CA 91367, USA",355748
10732001,91367,,2,2,7,2,1952,435000,34.169465,-118.621577,"22709 Clarendon St, Woodland Hills, CA 91367, USA",427209
10732028,91367,,3,4,,3,1953,496489,34.169843,-118.618205,"22542 Dolorosa St, Woodland Hills, CA 91367, USA",849916
10732033,91367,,2,2,7,2,1948,534000,34.16984,-118.619528,"22612 Dolorosa St, Woodland Hills, CA 91367, USA",435352
10732039,91367,,2,3,7,2,1947,456832,34.16975,-118.619941,"22626 Dolorosa St, Woodland Hills, CA 91367, USA",-115987
10732059,91367,,1,2,7,1,1952,350307,34.169475,-118.616187,"22447 Clarendon St, Woodland Hills, CA 91367, USA",279103
10732121,91367,1,3,4,4,3,1954,594272,34.168564,-118.618862,"5432 Sale Ave, Woodland Hills, CA 91367, USA",410166
10732305,91367,1,3,4,4,3,1959,917981,34.173061,-118.615209,"22411 Philiprimm St, Woodland Hills, CA 91367, USA",651016
10732307,91367,1,2,3,4,2,1960,690276,34.173398,-118.615507,"22420 Martha St, Woodland Hills, CA 91367, USA",477918
10732371,91367,1,3,3,4,3,1960,740000,34.177292,-118.616208,"22441 Califa St, Woodland Hills, CA 91367, USA",582236
10732441,91367,1,2,3,4,2,1971,87062,34.176834,-118.636597,"23400 Califa St, Woodland Hills, CA 91367, USA",351522
10732459,91367,,3,4,4,3,1953,857327,34.177003,-118.637724,"23438 Califa St, Woodland Hills, CA 91367, USA",835681
10732473,91367,1,2,3,7,2,1952,473159,34.177544,-118.632195,"23201 Califa St, Woodland Hills, CA 91367, USA",534533
10732511,91367,1,4,4,4,4,1998,2167457,34.175023,-118.634059,"23254 Hatteras St, Woodland Hills, CA 91367, USA",1108114
10732539,91367,,2,4,7,2,1951,790483,34.174021,-118.633155,"23225 Collins St, Woodland Hills, CA 91367, USA",406594
10732565,91367,1,3,4,4,3,1954,1170000,34.174198,-118.636487,"23365 Collins St, Woodland Hills, CA 91367, USA",746482
10732582,91367,1,3,3,4,3,1954,669899,34.173206,-118.635593,"23340 Collins St, Woodland Hills, CA 91367, USA",447588
10732678,91367,,2,4,4,2,1960,466089,34.172213,-118.623504,"5605 Fallbrook Ave, Woodland Hills, CA 91367, USA",273094
10732701,91367,,2,4,7,2,1948,590568,34.172248,-118.626884,"22937 Burbank Blvd, Woodland Hills, CA 91367, USA",638818
10732770,91367,,3,4,7,3,1955,810162,34.174218,-118.627064,"22933 Collins St, Woodland Hills, CA 91367, USA",791600
10732776,91367,,2,3,4,2,1956,113260,34.174213,-118.629147,"23045 Collins St, Woodland Hills, CA 91367, USA",314307
10732786,91367,,3,4,7,3,1955,1041806,34.175037,-118.629149,"23046 Hatteras St, Woodland Hills, CA 91367, USA",658846
10732806,91367,1,7,6,10,7,1950,1883628,34.176028,-118.627962,"23011 Hatteras St, Woodland Hills, CA 91367, USA",3208697
10732824,91367,,2,2,7,2,1950,7.00E+05,34.176853,-118.627369,"22944 Califa St, Woodland Hills, CA 91367, USA",660237
10732983,91367,,2,3,4,2,1958,624227,34.173428,-118.640576,"23560 Collins St, Woodland Hills, CA 91367, USA",364347
10732994,91367,,2,4,4,2,1957,382537,34.175686,-118.640587,"23555 Hatteras St, Woodland Hills, CA 91367, USA",282671
10733015,91367,,2,4,4,2,1958,358705,34.178357,-118.640612,"5936 Manton Ave, Woodland Hills, CA 91367, USA",315055
10733019,91367,1,2,3,4,2,1959,646360,34.178906,-118.640213,"23540 W Oxnard St, Woodland Hills, CA 91367, USA",459535
10733024,91367,1,2,3,4,2,1959,110920,34.177677,-118.640202,"23551 Califa St, Woodland Hills, CA 91367, USA",459534
10733045,91367,,2,3,4,2,1959,647000,34.177449,-118.641102,"5901 Manton Ave, Woodland Hills, CA 91367, USA",387356
10733060,91367,,3,4,4,3,1959,324814,34.17602,-118.641323,"5818 Le Sage Ave, Woodland Hills, CA 91367, USA",365088
10733098,91367,,2,3,4,2,1958,402756,34.170427,-118.622771,"22745 Dolorosa St, Woodland Hills, CA 91367, USA",356133
10733160,91367,1,3,4,4,3,1975,709679,34.171122,-118.629141,"5540 Sedan Ave, Woodland Hills, CA 91367, USA",504984
10733161,91367,1,3,4,4,3,1975,662986,34.171103,-118.629394,"23100 Berdon St, Woodland Hills, CA 91367, USA",504959
10733304,91367,,2,2,7,2,1948,91139,34.169592,-118.629384,"23046 Dolorosa St, Woodland Hills, CA 91367, USA",548505
10733353,91367,,2,3,4,2,1955,557922,34.169813,-118.623456,"5455 Fallbrook Ave, Woodland Hills, CA 91367, USA",620072
10733385,91367,,2,3,7,2,1951,495244,34.169825,-118.625003,"22844 Dolorosa St, Woodland Hills, CA 91367, USA",476566
10733386,91367,,2,3,4,2,1963,439847,34.169472,-118.625026,"22836 Dolorosa St, Woodland Hills, CA 91367, USA",275861
10733493,91364,,1,3,7,1,1950,480000,34.163415,-118.629978,"23133 Ventura Blvd, Woodland Hills, CA 91364, USA",349842
10733506,91364,,1,1,7,1,1951,63604,34.165449,-118.626451,"22935 Ventura Blvd, Woodland Hills, CA 91364, USA",477817
10733508,91364,,1,4,7,1,1950,193499,34.165228,-118.626814,"22949 Ventura Blvd, Woodland Hills, CA 91364, USA",224181
10733575,91367,1,3,3,4,3,1947,859221,34.167027,-118.624371,"22827 Leonora Dr, Woodland Hills, CA 91367, USA",721804
10733604,91364,,2,3,7,2,1954,632000,34.166237,-118.624044,"22815 Ventura Blvd, Woodland Hills, CA 91364, USA",703611
10733761,91367,,2,3,4,2,1960,553903,34.171598,-118.636573,"23400 Burbank Blvd, Woodland Hills, CA 91367, USA",430977
10733791,91367,1,3,4,4,3,1960,509253,34.171201,-118.637975,"23443 Berdon St, Woodland Hills, CA 91367, USA",683344
10733801,91367,1,2,3,4,2,1957,97869,34.170344,-118.637122,"23419 Dolorosa St, Woodland Hills, CA 91367, USA",365017
10733927,91367,1,3,5,4,3,1961,211040,34.166162,-118.638789,"23501 Canzonet St, Woodland Hills, CA 91367, USA",625592
10733982,91367,1,3,3,4,3,1963,441393,34.166772,-118.634465,"23301 Canzonet St, Woodland Hills, CA 91367, USA",581607
10734005,91367,1,2,4,7,2,1946,724000,34.166811,-118.631798,"23161 Canzonet St, Woodland Hills, CA 91367, USA",584009
10734009,91367,1,3,3,4,3,1980,328790,34.166801,-118.632391,"5301 Woodlake Ave, Woodland Hills, CA 91367, USA",555413
10734011,91367,1,2,3,4,2,1957,574602,34.167643,-118.631917,"5334 Woodlake Ave, Woodland Hills, CA 91367, USA",411518
10734014,91367,1,2,3,4,2,1961,586761,34.167671,-118.632627,"23215 Ladrillo St, Woodland Hills, CA 91367, USA",409227
10734031,91367,,4,4,4,4,1954,848000,34.165106,-118.633026,"23226 Gonzales Dr, Woodland Hills, CA 91367, USA",888598
10734033,91367,,3,4,4,3,1953,572915,34.165226,-118.632614,"23216 Gonzales Dr, Woodland Hills, CA 91367, USA",529972
10734068,91367,1,3,3,4,3,1973,519167,34.166045,-118.634501,"23306 Canzonet St, Woodland Hills, CA 91367, USA",598892
10734071,91367,1,3,4,4,3,1964,804000,34.166249,-118.635206,"23320 Canzonet St, Woodland Hills, CA 91367, USA",663165
10734090,91367,1,3,4,4,3,1961,34078,34.164964,-118.638173,"23455 Los Encinos Way, Woodland Hills, CA 91367, USA",657345
10734181,91367,1,3,4,4,3,1995,1178300,34.164762,-118.631945,"23161 Ostronic Dr, Woodland Hills, CA 91367, USA",856270
10734201,91367,,2,4,4,2,1964,85015,34.162492,-118.634039,"23276 Ostronic Dr, Woodland Hills, CA 91367, USA",305112
10734317,91367,1,4,5,4,4,1964,293150,34.180628,-118.654888,"24301 Caris St, Woodland Hills, CA 91367, USA",1028764
10734432,91367,1,3,4,4,3,1960,562564,34.181746,-118.650471,"24023 Bessemer St, Woodland Hills, CA 91367, USA",874973
10734457,91367,1,2,3,4,2,1962,408922,34.18067,-118.648672,"6100 Lockhurst Dr, Woodland Hills, CA 91367, USA",617970
10734465,91367,,3,4,4,3,1961,526223,34.181784,-118.647232,"6140 Lockhurst Dr, Woodland Hills, CA 91367, USA",561014
10734491,91367,,2,4,4,2,1961,617000,34.181784,-118.646246,"23832 Calvert St, Woodland Hills, CA 91367, USA",277180
10734540,91367,,2,3,4,2,1960,392715,34.180859,-118.644908,"23810 Bessemer St, Woodland Hills, CA 91367, USA",227497
10734552,91367,1,2,3,4,2,1959,371747,34.179861,-118.647183,"23862 Aetna St, Woodland Hills, CA 91367, USA",358413
10734577,91367,,2,3,4,2,1960,618280,34.180086,-118.644535,"23800 Aetna St, Woodland Hills, CA 91367, USA",397473
10734631,91367,1,2,3,4,2,1959,533001,34.179202,-118.643302,"23700 W Oxnard St, Woodland Hills, CA 91367, USA",349105
10734636,91367,1,3,3,4,3,1959,108480,34.179486,-118.642378,"23645 W Oxnard St, Woodland Hills, CA 91367, USA",479947
10734637,91367,1,2,4,4,2,1961,512099,34.179877,-118.642372,"23642 Aetna St, Woodland Hills, CA 91367, USA",291555
10734717,91367,1,3,4,4,3,1963,161956,34.17808,-118.650701,"5900 Elba Pl, Woodland Hills, CA 91367, USA",648217
10734727,91367,1,2,3,4,2,1963,199597,34.178354,-118.649713,"6912 Lockhurst Dr, Woodland Hills, CA 91367, USA",523491
10734750,91367,1,2,3,4,2,1963,112358,34.177583,-118.65027,"5863 Lockhurst Dr, Woodland Hills, CA 91367, USA",564370
10734783,91367,1,3,4,4,3,1961,664000,34.175427,-118.648398,"5724 Larryan Dr, Woodland Hills, CA 91367, USA",505866
10734794,91367,1,3,4,4,3,1962,121532,34.175208,-118.646374,"23812 Crosson Dr, Woodland Hills, CA 91367, USA",528575
10734799,91367,1,3,5,4,3,1960,120714,34.175376,-118.647647,"5708 Larryan Dr, Woodland Hills, CA 91367, USA",501379
10734906,91367,1,2,3,4,2,1961,650000,34.173916,-118.645112,"23720 Crosson Dr, Woodland Hills, CA 91367, USA",513479
10734912,91367,1,3,4,4,3,1961,672000,34.174597,-118.645187,"23814 Hatteras St, Woodland Hills, CA 91367, USA",687000
10734918,91367,,2,3,4,2,1961,485951,34.173689,-118.644214,"5701 Platt Ave, Woodland Hills, CA 91367, USA",427887
10734920,91367,,2,3,4,2,1960,433946,34.172914,-118.64537,"23730 Carard St, Woodland Hills, CA 91367, USA",329947
10734935,91367,,2,3,4,2,1960,89710,34.173794,-118.645798,"5642 Ramara Ave, Woodland Hills, CA 91367, USA",549105
10734943,91367,1,2,4,4,2,1964,694317,34.174014,-118.657265,"5734 Fairhaven Ave, Woodland Hills, CA 91367, USA",343074
10734947,91367,1,2,3,4,2,1964,613739,34.174788,-118.657336,"5762 Fairhaven Ave, Woodland Hills, CA 91367, USA",479359
10734965,91367,1,2,4,4,2,1964,142142,34.17425,-118.655972,"5732 Valerie Ave, Woodland Hills, CA 91367, USA",371589
10734968,91367,1,3,5,4,3,1964,149899,34.174867,-118.656006,"5754 Valerie Ave, Woodland Hills, CA 91367, USA",527875
10735019,91367,1,2,4,4,2,1964,474652,34.174324,-118.655248,"5710 Star Ln, Woodland Hills, CA 91367, USA",371548
10735045,91367,1,3,5,4,3,1964,335230,34.175131,-118.65532,"24301 Hatteras St, Woodland Hills, CA 91367, USA",539770
10735049,91367,1,4,5,4,4,1966,432737,34.176607,-118.652044,"5849 Valley Cir Blvd, Woodland Hills, CA 91367, USA",809019
10735081,91367,1,2,3,4,2,1963,777000,34.174114,-118.647813,"5660 Valley Cir Blvd, Woodland Hills, CA 91367, USA",593400
10735099,91367,1,2,3,4,2,1964,814000,34.176371,-118.651306,"5827 Valley Cir Blvd, Woodland Hills, CA 91367, USA",612175
10735117,91367,1,2,3,4,2,1963,729000,34.17439,-118.650469,"5708 El Canon Ave, Woodland Hills, CA 91367, USA",605838
10735144,91367,1,2,4,4,2,1963,96648,34.173804,-118.651969,"24116 Hatteras St, Woodland Hills, CA 91367, USA",372860
10735153,91367,1,3,5,4,3,1963,356223,34.17469,-118.652491,"24205 Hatteras St, Woodland Hills, CA 91367, USA",479057
10735163,91367,1,4,4,4,4,1962,437783,34.172079,-118.651789,"5548 Ostin Ave, Woodland Hills, CA 91367, USA",1141434
10735239,91367,1,2,4,4,2,1964,99853,34.171612,-118.655262,"24341 Philiprimm St, Woodland Hills, CA 91367, USA",371588
10735249,91367,1,2,3,4,2,1964,675031,34.171513,-118.653792,"5548 Franrivers Ave, Woodland Hills, CA 91367, USA",479259
10735262,91367,1,4,4,4,4,1964,740505,34.172836,-118.653433,"5618 Ostin Ave, Woodland Hills, CA 91367, USA",987774
10735266,91367,1,2,3,4,2,1964,789000,34.172167,-118.652765,"5560 Ostin Ave, Woodland Hills, CA 91367, USA",547300
10735281,91367,1,2,4,4,2,1962,750000,34.170301,-118.653726,"24235 Burbank Blvd, Woodland Hills, CA 91367, USA",348305
10735389,91367,1,3,3,4,3,1963,134999,34.171818,-118.647423,"5571 El Canon Ave, Woodland Hills, CA 91367, USA",811235
10735392,91367,1,2,4,4,2,1963,116848,34.171806,-118.646588,"5572 El Canon Ave, Woodland Hills, CA 91367, USA",596502
10735394,91367,1,3,4,4,3,1963,593502,34.171439,-118.646883,"5568 El Canon Ave, Woodland Hills, CA 91367, USA",745526
10735466,91367,1,2,3,4,2,1961,449224,34.164622,-118.641242,"23701 Canzonet St, Woodland Hills, CA 91367, USA",612004
10735481,91367,1,2,4,4,2,1962,275797,34.166039,-118.642009,"23625 Kivik St, Woodland Hills, CA 91367, USA",566078
10735489,91367,1,2,4,4,2,1962,349242,34.165004,-118.640046,"23600 Canzonet St, Woodland Hills, CA 91367, USA",491428
10735545,91367,1,3,5,4,3,1962,519292,34.168869,-118.64456,"23750 Albers St, Woodland Hills, CA 91367, USA",588158
10735618,91367,1,3,3,4,3,1962,511401,34.169332,-118.645415,"23800 Killion St, Woodland Hills, CA 91367, USA",924892
10735627,91367,1,4,5,4,4,1967,878000,34.16852,-118.647912,"23895 Killion St, Woodland Hills, CA 91367, USA",886586
10735713,91367,1,2,4,4,2,1963,745000,34.168006,-118.651427,"24124 Killion St, Woodland Hills, CA 91367, USA",372847
10735751,91367,1,4,4,4,4,1968,847000,34.168656,-118.64876,"23911 Killion St, Woodland Hills, CA 91367, USA",913125
10735776,91367,1,3,5,4,3,1963,261510,34.16788,-118.651996,"24130 Killion St, Woodland Hills, CA 91367, USA",742862
10735780,91367,1,4,6,4,4,1963,509990,34.167014,-118.652071,"5329 Blanco Ave, Woodland Hills, CA 91367, USA",844582
10735784,91367,1,2,3,4,2,1963,602290,34.166887,-118.651119,"5308 Blanco Ave, Woodland Hills, CA 91367, USA",429395
10735801,91367,1,2,3,4,2,1963,492344,34.167088,-118.653136,"24217 Albers St, Woodland Hills, CA 91367, USA",430377
10735804,91367,1,4,6,4,4,1963,886286,34.166443,-118.653072,"24217 Mariano St, Woodland Hills, CA 91367, USA",686653
10735829,91367,1,2,4,4,2,1962,231785,34.169679,-118.654112,"24258 Burbank Blvd, Woodland Hills, CA 91367, USA",348382
10735864,91367,1,4,5,4,4,1970,142753,34.16715,-118.646065,"5320 Orrville Ave, Woodland Hills, CA 91367, USA",770639
10735878,91367,1,4,5,4,4,1971,783300,34.168008,-118.648532,"23912 Killion St, Woodland Hills, CA 91367, USA",936158
10735906,91367,1,2,4,4,2,1973,111124,34.166622,-118.648781,"5309 Parion Ct, Woodland Hills, CA 91367, USA",338502
10735927,91367,1,3,4,4,3,1974,901661,34.165111,-118.644404,"23760 Lund St, Woodland Hills, CA 91367, USA",571545
10735992,91301,1,3,3,4,3,1980,613067,34.156895,-118.752267,"28821 Garnet Hill Ct, Agoura Hills, CA 91301, USA",891740
10736001,91301,1,3,3,4,3,1980,768236,34.154696,-118.751959,"5747 Carell Ave, Agoura Hills, CA 91301, USA",891536
10736758,91302,1,5,5,10,5,1991,2830443,34.176005,-118.666721,"5843 Annie Oakley Rd, Hidden Hills, CA 91302, USA",3113069
10736804,91302,1,3,4,4,3,1963,1844298,34.167099,-118.668347,"5750 Jed Smith Rd, Hidden Hills, CA 91302, USA",762550
10736832,91302,1,7,7,1,7,1974,3050000,34.166671,-118.66684,"5813 Jed Smith Rd, Hidden Hills, CA 91302, USA",2027147
10736890,91302,1,9,7,12,9,1989,4066364,34.159372,-118.670219,"25090 Jim Bridger Rd, Calabasas, CA 91302, USA",6499370
10736963,91302,1,3,4,4,3,1963,174470,34.15583,-118.668205,"24928 Jim Bridger Rd, Hidden Hills, CA 91302, USA",1040070
10736972,91302,1,4,6,4,4,1955,352441,34.158082,-118.664451,"5314 Round Meadow Rd, Hidden Hills, CA 91302, USA",1310580
10736988,91302,1,5,5,4,5,1965,2136340,34.155464,-118.666958,"24924 Jim Bridger Rd, Hidden Hills, CA 91302, USA",1417618
10737005,91302,1,4,5,4,4,1954,2312000,34.165548,-118.658164,"24408 Long Valley Rd, Hidden Hills, CA 91302, USA",1529548
10737047,91367,1,3,3,4,3,1960,1725000,34.166058,-118.653623,"24250 Mariano St, Woodland Hills, CA 91367, USA",797613
10737078,91302,1,5,6,1,5,1985,829014,34.164948,-118.656349,"24355 Long Valley Rd, Hidden Hills, CA 91302, USA",1828753
10737113,91302,1,5,5,4,5,1956,2675670,34.164144,-118.646917,"5547 Paradise Valley Rd, Hidden Hills, CA 91302, USA",1554571
10737133,91302,1,4,5,10,4,1979,1241058,34.157225,-118.644475,"23756 Oakfield Rd, Hidden Hills, CA 91302, USA",1859818
10737143,91302,,2,2,4,2,1956,2353032,34.158685,-118.642745,"23672 Oakfield Rd, Hidden Hills, CA 91302, USA",867810
10737199,91302,,3,4,4,3,1959,1345509,34.159763,-118.639945,"23475 Long Valley Rd, Calabasas, CA 91302, USA",979321
10737327,91302,1,4,5,1,4,1976,1364646,34.164311,-118.658402,"24400 Little Hollow Ln, Hidden Hills, CA 91302, USA",1292854
10737344,91302,1,6,6,1,6,1963,2192956,34.163076,-118.662418,"5560 Bonneville Rd, Hidden Hills, CA 91302, USA",1725407
10737363,91302,1,7,6,1,7,1962,3285000,34.160397,-118.661045,"5364 Scott Robertson Rd, Hidden Hills, CA 91302, USA",2232864
10737411,91302,1,5,6,4,5,1970,1422088,34.164419,-118.672303,"5550 Bill Cody Rd, Hidden Hills, CA 91302, USA",1362429
10737487,91302,1,5,5,10,5,1986,2256525,34.161167,-118.657447,"24305 Bridle Trail Rd, Hidden Hills, CA 91302, USA",2491136
10737587,91302,1,6,5,12,6,1990,787203,34.173422,-118.666265,"5948 Annie Oakley Rd, Hidden Hills, CA 91302, USA",2954683
10738092,91302,1,9,7,10,9,2007,8036143,34.155877,-118.672714,"25200 Jim Bridger Rd, Hidden Hills, CA 91302, USA",4463011
10738113,91302,1,6,5,10,6,2004,3763726,34.153974,-118.66704,"5151 Garrett Ct, Hidden Hills, CA 91302, USA",3314774
10738149,91301,1,3,5,4,3,1973,114026,34.167901,-118.755487,"28831 Timberlane St, Agoura Hills, CA 91301, USA",462909
10738167,91301,1,3,4,4,3,1973,649007,34.167132,-118.755814,"6352 Acadia Ave, Agoura Hills, CA 91301, USA",712692
10738220,91301,,2,4,4,2,1977,191099,34.162474,-118.755655,"28863 Eagleton St, Agoura Hills, CA 91301, USA",487651
10738226,91301,1,3,4,4,3,1977,770000,34.162811,-118.755481,"6120 Acadia Ave, Agoura Hills, CA 91301, USA",708346
10738232,91301,,2,4,4,2,1977,684406,34.163236,-118.75579,"6200 Acadia Ave, Agoura Hills, CA 91301, USA",486973
10738249,91301,,2,4,4,2,1977,392983,34.164343,-118.755639,"6226 Acadia Ave, Agoura Hills, CA 91301, USA",487642
10738275,91301,1,3,4,4,3,1977,560425,34.163909,-118.752984,"28776 Eagleton St, Agoura Hills, CA 91301, USA",707401
10738391,91301,1,2,4,4,2,1974,629379,34.165482,-118.754025,"6302 Capricorn Ave, Agoura Hills, CA 91301, USA",491502
10738408,91301,,3,4,4,3,1974,312641,34.165493,-118.751597,"28701 Colina Vista St, Agoura Hills, CA 91301, USA",711391
10738438,91301,1,3,4,4,3,1974,542281,34.166124,-118.749564,"28655 Bamfield Dr, Agoura Hills, CA 91301, USA",712253
10738461,91301,,3,4,4,3,1977,445835,34.164768,-118.74916,"6240 Timberlane St, Agoura Hills, CA 91301, USA",707371
10738505,91301,,2,4,4,2,1975,524082,34.166958,-118.749996,"28657 Quaint St, Agoura Hills, CA 91301, USA",490243
10738562,91301,1,3,4,4,3,1975,632171,34.167079,-118.747854,"28602 Acacia Glen St, Agoura Hills, CA 91301, USA",710035
10738577,91301,,3,4,4,3,1975,674816,34.167134,-118.746606,"28611 Bamfield Dr, Agoura Hills, CA 91301, USA",711511
10738623,91301,1,2,3,4,2,1977,614764,34.163429,-118.752343,"28766 Eagleton St, Agoura Hills, CA 91301, USA",431122
10738644,91301,1,2,4,4,2,1979,335407,34.160405,-118.755541,"6035 Calmfield Ave, Agoura Hills, CA 91301, USA",484333
10738662,91301,,2,4,4,2,1978,152270,34.161309,-118.752241,"28902 Bardell Dr, Agoura Hills, CA 91301, USA",486866
10738667,91301,1,2,4,4,2,1978,675000,34.16086,-118.753115,"28906 Bardell Dr, Agoura Hills, CA 91301, USA",486347
10738839,91301,1,3,3,4,3,1979,301586,34.161922,-118.757203,"29000 Acanthus Ct, Agoura Hills, CA 91301, USA",1041949
10738858,91301,1,4,4,4,4,1980,519716,34.16275,-118.757071,"28930 Dargan St, Agoura Hills, CA 91301, USA",1259044
10738862,91301,1,3,3,4,3,1980,113375,34.162569,-118.757986,"29003 Woodcreek Ct, Agoura Hills, CA 91301, USA",814868
10738897,91301,1,3,3,4,3,1979,498209,34.159505,-118.757207,"29000 Freshwater Dr, Agoura Hills, CA 91301, USA",817420
10739089,91301,1,3,4,4,3,1979,702624,34.159269,-118.758482,"29034 Freshwater Dr, Agoura Hills, CA 91301, USA",998022
10739099,91301,1,4,4,4,4,1980,635723,34.161889,-118.759207,"29043 Acanthus Ct, Agoura Hills, CA 91301, USA",1104626
10739100,91301,1,3,3,4,3,1980,477770,34.161706,-118.759202,"29043 Acanthus Ct, Agoura Hills, CA 91301, USA",888465
10739129,91301,1,2,3,4,2,1980,623539,34.165511,-118.759528,"29025 Indian Ridge Ct, Agoura Hills, CA 91301, USA",760950
10739198,91301,1,3,3,4,3,1981,554367,34.166031,-118.759092,"29030 Tackaberry Ct, Agoura Hills, CA 91301, USA",914144
10739397,91301,1,2,3,4,2,1976,721423,34.147068,-118.73652,"Fran Pavley Meadow, 5406-5498 Chesebro Rd, Agoura Hills, CA 91301, USA",428607
10739404,91301,,1,2,7,1,1939,553129,34.145673,-118.736808,"5326 Chesebro Rd, Agoura Hills, CA 91301, USA",409981
10739466,91301,1,3,5,4,3,1972,125521,34.145364,-118.711895,"5254 Edgeware Dr, Agoura Hills, CA 91301, USA",847814
10739520,91302,,2,3,7,2,1964,345418,34.158683,-118.696531,"26130 Veva Way, Calabasas, CA 91302, USA",669688
10739524,91302,,2,5,7,2,1964,680000,34.158951,-118.697421,"26160 Veva Way, Calabasas, CA 91302, USA",587598
10739534,91302,,2,5,7,2,1964,574815,34.159828,-118.698188,"26227 Veva Way, Calabasas, CA 91302, USA",587565
10739561,91302,1,2,5,7,2,1964,596509,34.160251,-118.697932,"26227 Veva Way, Calabasas, CA 91302, USA",497483
10739631,91302,1,2,5,7,2,1964,499498,34.1591,-118.695028,"5582 Parkmor Rd, Calabasas, CA 91302, USA",587672
10739659,91302,1,2,4,7,2,1964,66449,34.157066,-118.696245,"26148 Roymor Dr, Calabasas, CA 91302, USA",649081
10739666,91302,1,3,5,4,3,1964,621860,34.156481,-118.697007,"5474 Ruthwood Dr, Calabasas, CA 91302, USA",757477
10739685,91302,1,2,4,7,2,1964,446728,34.155532,-118.694485,"5438 Parkmor Rd, Calabasas, CA 91302, USA",657239
10739718,91302,1,3,4,7,3,1964,69713,34.154952,-118.694135,"26000 Redbluff Dr, Calabasas, CA 91302, USA",726571
10739814,91302,,2,5,7,2,1965,566381,34.163273,-118.696223,"5829 Belbert Cir, Calabasas, CA 91302, USA",586309
10739871,91302,1,3,4,7,3,1964,463890,34.162026,-118.698649,"26273 Adamor Rd, Calabasas, CA 91302, USA",726645
10740168,91301,1,3,5,4,3,1970,520481,34.144814,-118.713646,"5237 Cangas Dr, Agoura Hills, CA 91301, USA",830421
10740182,91301,1,3,5,4,3,1970,858109,34.144093,-118.715164,"5228 Dantes View Dr, Agoura Hills, CA 91301, USA",954959
10740387,91301,1,3,5,4,3,1974,941978,34.146196,-118.712966,"5340 Cangas Dr, Agoura Hills, CA 91301, USA",845269
10741013,91301,1,3,4,4,3,1982,710668,34.152963,-118.761209,"29150 Quail Run Dr, Agoura Hills, CA 91301, USA",796168
10741056,91301,1,4,5,4,4,1985,1033000,34.153629,-118.759724,"5640 Buffwood Pl, Agoura Hills, CA 91301, USA",1167827
10741060,91301,1,3,4,4,3,1982,453435,34.154172,-118.759446,"29056 Thousand Oaks Blvd, Agoura Hills, CA 91301, USA",732567
10743579,91301,,3,3,4,3,1984,187753,34.161479,-118.736689,"6279 Fairview Pl, Agoura Hills, CA 91301, USA",1211674
10743597,91301,1,2,4,4,2,1979,521454,34.146282,-118.743626,"5344 Lewis Rd, Agoura Hills, CA 91301, USA",674410
10743600,91301,1,4,4,4,4,2002,597592,34.145409,-118.743656,"5322 Lewis Rd, Agoura Hills, CA 91301, USA",821836
10743971,91301,1,5,4,4,5,2000,250156,34.149634,-118.738393,"5559 Colodny Dr, Agoura Hills, CA 91301, USA",1351943
10743981,91301,1,3,3,4,3,1987,794780,34.150773,-118.737632,"5626 Colodny Dr, Agoura Hills, CA 91301, USA",858342
10743997,91301,1,2,3,7,2,1975,1502430,34.149871,-118.739417,"5560 Fairview Pl, Agoura Hills, CA 91301, USA",1091782
10744072,91301,1,4,4,4,4,1987,863571,34.151262,-118.743323,"5571 Lewis Ln, Agoura Hills, CA 91301, USA",1143757
10744083,91301,1,4,4,4,4,1989,1213000,34.149965,-118.745993,"28445 W Driver Ave, Agoura Hills, CA 91301, USA",1166115
10744101,91301,1,3,3,4,3,1981,609558,34.153603,-118.74482,"28341 Foothill Dr, Agoura Hills, CA 91301, USA",1025808
10744103,91301,1,5,5,1,5,1989,990442,34.154097,-118.745291,"28364 Balkins Dr, Agoura Hills, CA 91301, USA",1595013
10744116,91301,1,3,4,7,3,1956,321622,34.152591,-118.741121,"5731 Fairview Pl, Agoura Hills, CA 91301, USA",738416
10744120,91301,1,3,3,1,3,1977,801151,34.153057,-118.741881,"5737 Fairview Pl, Agoura Hills, CA 91301, USA",1358903
10744123,91301,1,4,5,4,4,1998,560891,34.153923,-118.741534,"5747 Fairview Pl, Agoura Hills, CA 91301, USA",902275
10744138,91301,1,3,3,4,3,1961,945986,34.15483,-118.742733,"5800 Lapworth Dr, Agoura Hills, CA 91301, USA",719701
10744153,91301,,1,2,7,1,1930,94407,34.158266,-118.741454,"6039 Fairview Pl, Agoura Hills, CA 91301, USA",1205609
10744192,91301,,1,1,7,1,1948,1172000,34.154703,-118.736525,"28034 Balkins Dr, Agoura Hills, CA 91301, USA",479462
10744246,91301,1,5,5,10,5,1989,971978,34.160318,-118.733195,"6148 Chesebro Rd, Agoura Hills, CA 91301, USA",1977651
10746256,91361,1,4,5,1,4,1976,1357956,34.137221,-118.81255,"31628 Saddletree Dr, Westlake Village, CA 91361, USA",1037562
10746906,91301,1,4,4,1,4,1981,2201759,34.112656,-118.811983,"31800 Lobo Canyon Rd, Agoura Hills, CA 91301, USA",1404699
10746938,91301,1,4,4,4,4,1977,1470672,34.113849,-118.821052,"32069 Lobo Canyon Rd, Agoura Hills, CA 91301, USA",1151875
10746945,91301,1,5,5,10,5,1980,2379100,34.105476,-118.824971,"32200 Lobo Canyon Rd, Agoura Hills, CA 91301, USA",2679719
10748450,91361,1,5,5,10,5,2003,1515000,34.124651,-118.850421,"1690 Sycamore Canyon Dr, Westlake Village, CA 91361, USA",2152175
10749846,91301,1,2,4,7,2,1987,563862,34.139907,-118.742116,"28207 Laura La Plante Dr, Agoura Hills, CA 91301, USA",545531
10749958,91301,1,3,3,4,3,1981,611383,34.141517,-118.749376,"4926 Vejar Dr, Agoura Hills, CA 91301, USA",726196
10750045,91301,1,3,3,4,3,1984,537858,34.139603,-118.737486,"4946 Calle Robleda, Agoura Hills, CA 91301, USA",904487
10750095,91301,1,2,3,4,2,1981,574804,34.139693,-118.734809,"4972 Calle Montecillo, Agoura Hills, CA 91301, USA",578176
10750168,91301,1,4,4,1,4,2004,992846,34.120364,-118.789339,"2714 Triunfo Canyon Rd, Agoura Hills, CA 91301, USA",1102763
10750182,91301,1,3,4,1,3,1985,699609,34.135687,-118.753438,"4270 Cornell Rd, Agoura Hills, CA 91301, USA",1175738
10750199,91301,1,5,5,1,5,1978,2540000,34.130161,-118.746012,"28655 Wagon Rd, Agoura Hills, CA 91301, USA",1447012
10750290,91301,1,4,4,4,4,1988,1073974,34.133582,-118.753245,"4143 Cornell Rd, Agoura Hills, CA 91301, USA",1106726
10750321,91301,,4,2,7,4,1967,1204000,34.127708,-118.752838,"28907 Wagon Rd, Agoura Hills, CA 91301, USA",1353027
10750333,91301,1,3,4,4,3,1979,1649621,34.12763,-118.755674,"29050 Wagon Rd, Agoura Hills, CA 91301, USA",1190025
10750366,91301,1,5,5,10,5,1988,1480000,34.129559,-118.761524,"29305 Wagon Rd, Agoura Hills, CA 91301, USA",2171738
10750379,91301,1,5,5,10,5,1988,1217012,34.128777,-118.761604,"29310 Wagon Rd, Agoura Hills, CA 91301, USA",2130293
10750380,91301,1,6,5,1,6,1987,1209011,34.12862,-118.761177,"29270 Wagon Rd, Agoura Hills, CA 91301, USA",1779834
10750385,91301,1,5,4,1,5,1988,997027,34.128739,-118.757275,"29117 Old Mill Creek Ln, Agoura Hills, CA 91301, USA",2144019
10750449,91301,1,6,5,10,6,1990,1602640,34.131457,-118.757124,"4019 Hunt Club Ct, Agoura Hills, CA 91301, USA",2959605
10750594,91301,1,6,5,10,6,1990,1447368,34.129864,-118.718179,"3826 Marks Rd, Agoura Hills, CA 91301, USA",2804548
10750600,91301,1,6,5,10,6,1990,1324229,34.131463,-118.71572,"3928 Davids Rd, Agoura Hills, CA 91301, USA",2804216
10750696,91301,1,3,4,4,3,1989,804763,34.130591,-118.723596,"3843 Patrick Henry Pl, Agoura Hills, CA 91301, USA",674749
10750708,91301,1,3,4,4,3,1989,455601,34.131049,-118.724081,"3804 Tiffany Ct, Agoura Hills, CA 91301, USA",639336
10750738,91301,1,3,4,4,3,1989,728864,34.127957,-118.720633,"27301 Park Vista Rd, Agoura Hills, CA 91301, USA",857716
10750745,91301,1,3,4,4,3,1989,923081,34.127505,-118.721825,"27306 Park Vista Rd, Agoura Hills, CA 91301, USA",857745
10750805,91302,1,3,5,1,3,1990,806000,34.132088,-118.703054,"26602 Goldenrod Pl, Calabasas, CA 91302, USA",806187
10750828,91301,1,3,3,4,3,1989,630881,34.130331,-118.707652,"3836 Lost Springs Dr, Agoura Hills, CA 91301, USA",558483
10750842,91301,1,3,4,4,3,1989,690867,34.130202,-118.708242,"3832 Lost Springs Dr, Agoura Hills, CA 91301, USA",585810
10750856,91301,1,3,4,4,3,1989,728000,34.131055,-118.709354,"26818 Sage Ct, Agoura Hills, CA 91301, USA",520687
10750886,91301,1,3,4,4,3,1989,695000,34.131458,-118.707911,"3912 Lost Springs Dr, Agoura Hills, CA 91301, USA",520632
10750908,91301,1,5,4,1,5,1992,601035,34.114892,-118.777581,"29983 Mulholland Hwy, Agoura Hills, CA 91301, USA",1342644
10751145,91302,1,3,3,4,3,1988,635000,34.137928,-118.701522,"4304 Oak Glen St, Calabasas, CA 91302, USA",587290
10751162,91302,1,3,2,4,3,1988,660000,34.138217,-118.701263,"4345 Las Virgenes Rd, Calabasas, CA 91302, USA",702521
10751382,91301,1,2,3,4,2,1973,197064,34.132705,-118.727017,"27520 Country Glen Rd, Agoura Hills, CA 91301, USA",490582
10751392,91301,1,2,4,4,2,1985,497544,34.131725,-118.72392,"3919 Patrick Henry Pl, Agoura Hills, CA 91301, USA",561977
10751394,91301,1,4,4,4,4,1985,734883,34.131671,-118.724439,"3930 Tarrytown Ln, Agoura Hills, CA 91301, USA",788881
10751672,91301,1,3,4,4,3,1965,747000,34.135654,-118.722847,"27368 Provident Rd, Agoura Hills, CA 91301, USA",604101
10751780,91301,,2,3,4,2,1971,209888,34.131052,-118.721429,"3906 United Rd, Agoura Hills, CA 91301, USA",493440
10751810,91301,,2,3,4,2,1971,473231,34.130073,-118.720469,"27306 Oak Summit Rd, Agoura Hills, CA 91301, USA",493207
10751814,91301,1,2,3,4,2,1971,311745,34.129747,-118.720988,"27326 Oak Summit Rd, Agoura Hills, CA 91301, USA",555160
10751835,91301,,2,4,4,2,1965,752600,34.134013,-118.720143,"4050 Jim Bowie Rd, Agoura Hills, CA 91301, USA",591223
10751856,91301,,2,4,4,2,1972,70535,34.131864,-118.720751,"3941 Jim Bowie Rd, Agoura Hills, CA 91301, USA",360241
10752080,91302,1,3,3,4,3,1988,653000,34.139527,-118.700266,"4393 Willow Glen St, Calabasas, CA 91302, USA",587297
10752084,91302,1,3,2,4,3,1988,375661,34.139334,-118.701006,"4377 Oak Glen St, Calabasas, CA 91302, USA",702506
10753041,91302,1,5,5,4,5,1968,1261000,34.150026,-118.64007,"4439 Park Aurora, Calabasas, CA 91302, USA",1329608
10753251,91302,1,4,5,4,4,1969,782645,34.146951,-118.641014,"23656 Park Sevilla, Calabasas, CA 91302, USA",1176028
10753578,91302,1,5,5,4,5,1969,635829,34.145871,-118.642078,"23579 Park Belmonte, Calabasas, CA 91302, USA",1274522
10753600,91302,1,4,4,4,4,1977,1245000,34.143313,-118.644517,"23766 Park Belmonte, Calabasas, CA 91302, USA",1307133
10753932,91302,1,6,5,1,6,2000,2190000,34.145608,-118.656067,"4465 Alta Tupelo Dr, Calabasas, CA 91302, USA",1863085
10754703,91302,1,4,4,1,4,1989,1217024,34.143311,-118.633877,"23209 Park Corniche, Calabasas, CA 91302, USA",1435304
10755683,91302,1,6,5,10,6,2004,1528460,34.140524,-118.673413,"4154 Prado De La Puma, Calabasas, CA 91302, USA",2372938
10755695,91302,1,4,3,1,4,2004,1556598,34.139638,-118.673146,"4118 Prado De La Puma, Calabasas, CA 91302, USA",1660645
10755701,91302,1,4,4,1,4,2003,2378000,34.140508,-118.675319,"4132 Prado De Las Cabras, Calabasas, CA 91302, USA",1669725
10755799,91302,1,6,5,10,6,2003,1948726,34.142077,-118.669283,"4232 Prado De Los Pajaros, Calabasas, CA 91302, USA",2713696
10755837,91302,1,6,6,12,6,2006,6754255,34.129429,-118.677598,"25364 Prado De La Felicidad, Calabasas, CA 91302, USA",4387520
10755869,91302,1,5,4,10,5,2005,2900000,34.132098,-118.668179,"25281 Prado Del Grandioso, Calabasas, CA 91302, USA",2644764
10755901,91302,1,5,4,10,5,2005,2558410,34.13864,-118.683302,"25590 Prado De Las Bellotas, Calabasas, CA 91302, USA",2794339
10755915,91302,1,7,6,10,7,2006,2571000,34.140287,-118.681144,"25441 Prado De Amor, Calabasas, CA 91302, USA",2640301
10755957,91302,1,5,4,1,5,2005,1875097,34.139619,-118.675842,"4040 Prado Del Trigo, Calabasas, CA 91302, USA",1653475
10755968,91302,1,5,4,10,5,2005,2118064,34.137372,-118.679607,"3915 Prado De Las Frutas, Calabasas, CA 91302, USA",2424428
10755980,91302,1,3,3,10,3,2005,1701101,34.138636,-118.678519,"3980 Prado De Las Frutas, Calabasas, CA 91302, USA",2069129
10756073,91302,1,5,4,10,5,2005,1891666,34.134843,-118.675491,"3810 Prado De Las Uvas, Calabasas, CA 91302, USA",2967719
10756079,91302,1,5,5,10,5,2005,2371656,34.133609,-118.67379,"25324 Prado De Las Fresas, Calabasas, CA 91302, USA",2453931
10756351,91302,1,3,4,4,3,1997,590482,34.131578,-118.643916,"3528 Mesquite Dr, Calabasas, CA 91302, USA",653638
10756356,91302,,2,2,7,2,1987,609641,34.131548,-118.646965,"3543 Elm Dr, Calabasas, CA 91302, USA",483553
10756398,91302,1,3,3,4,3,1982,695878,34.13153,-118.643536,"3521 Poppy Dr, Calabasas, CA 91302, USA",675994
10756465,91302,1,3,3,4,3,1988,929500,34.129553,-118.64071,"3416 Ivy Trail, Calabasas, CA 91302, USA",1024980
10756472,91302,1,4,3,1,4,2006,1145951,34.129681,-118.640375,"3416 Ivy Trail, Calabasas, CA 91302, USA",1348214
10756625,91302,1,6,5,10,6,1991,1075840,34.13563,-118.639843,"23520 Dry Canyon Cold Creek Rd, Calabasas, CA 91302, USA",2719470
10756745,91364,1,2,4,4,2,1958,726000,34.157166,-118.62767,"4823 Dunman Ave, Woodland Hills, CA 91364, USA",447713
10756832,91364,,2,4,7,2,1956,527669,34.159636,-118.623464,"22796 Calabash St, Woodland Hills, CA 91364, USA",383634
10756843,91364,1,3,3,4,3,1965,506129,34.158445,-118.62479,"4854 Bruges Ave, Woodland Hills, CA 91364, USA",710495
10756912,91364,,2,3,4,2,1964,538501,34.154776,-118.621123,"23015 Cass Ave, Woodland Hills, CA 91364, USA",594975
10756967,91364,,1,2,7,1,1985,349440,34.163082,-118.624925,"5063 Rigoletto St, Woodland Hills, CA 91364, USA",293976
10756969,91364,1,2,2,4,2,1986,662986,34.163242,-118.624586,"5101 Rigoletto St, Woodland Hills, CA 91364, USA",632737
10756982,91364,1,2,3,4,2,1957,609641,34.160383,-118.631379,"23181 Gainford St, Woodland Hills, CA 91364, USA",504345
10756996,91364,,2,3,4,2,1957,95748,34.159671,-118.629599,"23041 Calabash St, Woodland Hills, CA 91364, USA",536201
10757067,91364,,2,3,4,2,1957,798000,34.159956,-118.626944,"4918 Dunman Ave, Woodland Hills, CA 91364, USA",650446
10757071,91364,1,2,3,4,2,1958,96809,34.159571,-118.626723,"22912 Calabash St, Woodland Hills, CA 91364, USA",527776
10757091,91364,1,3,5,4,3,1965,526506,34.157892,-118.626878,"4816 Dunman Ave, Woodland Hills, CA 91364, USA",703761
10757130,91364,1,2,2,4,2,1969,754784,34.158135,-118.62299,"22728 Cavalier St, Woodland Hills, CA 91364, USA",686548
10757145,91364,,2,3,4,2,1958,109356,34.158818,-118.631212,"23210 Calabash St, Woodland Hills, CA 91364, USA",533231
10757223,91364,,2,3,4,2,1958,103763,34.154938,-118.629108,"4610 Degovia Ave, Woodland Hills, CA 91364, USA",558258
10757227,91364,1,3,4,4,3,1962,237515,34.154326,-118.629454,"4560 Deseret Dr, Woodland Hills, CA 91364, USA",992184
10757239,91364,1,3,4,4,3,1960,178187,34.155676,-118.631407,"23164 Heiss St, Woodland Hills, CA 91364, USA",914017
10757261,91364,1,3,5,4,3,1958,480222,34.15418,-118.628485,"4557 Larkwood Ave, Woodland Hills, CA 91364, USA",681532
10757385,91364,1,3,5,4,3,1960,905000,34.158448,-118.632358,"4838 Heaven Ave, Woodland Hills, CA 91364, USA",633424
10757417,91364,1,3,5,4,3,1965,839925,34.155705,-118.625344,"4626 Romberg Pl, Woodland Hills, CA 91364, USA",754551
10757527,91364,1,1,2,4,1,1948,380416,34.166196,-118.609637,"22137 Avenue San Luis, Woodland Hills, CA 91364, USA",241292
10757542,91364,1,3,3,4,3,1954,605000,34.166778,-118.611344,"22220 Del Valle St, Woodland Hills, CA 91364, USA",565961
10757551,91364,,3,3,4,3,1962,324821,34.167062,-118.61101,"22215 Del Valle St, Woodland Hills, CA 91364, USA",691049
10757576,91364,1,2,3,4,2,1980,363157,34.165789,-118.611668,"22229 MacFarlane Dr, Woodland Hills, CA 91364, USA",575514
10757662,91364,,2,3,4,2,1956,409842,34.163712,-118.613746,"22369 MacFarlane Dr, Woodland Hills, CA 91364, USA",527236
10757717,91364,,2,3,4,2,1956,252658,34.164157,-118.61668,"22464 Cass Ave, Woodland Hills, CA 91364, USA",324041
10757746,91364,1,2,3,4,2,1966,683385,34.163139,-118.620879,"22692 Crespi St, Woodland Hills, CA 91364, USA",411124
10757757,91364,1,3,4,4,3,1987,465224,34.163753,-118.620226,"22671 Crespi St, Woodland Hills, CA 91364, USA",519333
10757767,91364,1,2,3,4,2,1963,609641,34.162792,-118.619042,"22630 MacFarlane Dr, Woodland Hills, CA 91364, USA",539566
10757772,91364,1,3,3,4,3,1966,149866,34.162404,-118.620439,"22665 MacFarlane Dr, Woodland Hills, CA 91364, USA",906381
10757807,91364,1,2,3,4,2,1966,513664,34.163468,-118.62155,"22760 Avenue San Luis, Woodland Hills, CA 91364, USA",517428
10757842,91364,1,3,3,4,3,1949,645315,34.162285,-118.62334,"22805 MacFarlane Dr, Woodland Hills, CA 91364, USA",1000407
10757846,91364,1,3,3,4,3,1976,310947,34.162488,-118.622463,"22779 MacFarlane Dr, Woodland Hills, CA 91364, USA",562557
10757900,91364,,2,4,7,2,1956,579240,34.160159,-118.621274,"22736 Cass Ave, Woodland Hills, CA 91364, USA",364941
10757918,91364,1,3,3,4,3,1951,860671,34.161568,-118.620112,"22361 MacFarlane Dr, Woodland Hills, CA 91364, USA",725790
10757923,91364,1,3,3,4,3,1997,835000,34.160971,-118.619916,"22687 Cass Ave, Woodland Hills, CA 91364, USA",619404
10757936,91364,,3,4,7,3,1955,674000,34.162622,-118.617666,"22524 MacFarlane Dr, Woodland Hills, CA 91364, USA",541442
10757938,91364,,2,3,7,2,1955,658600,34.162307,-118.61797,"22544 MacFarlane Dr, Woodland Hills, CA 91364, USA",429541
10757955,91364,,2,4,4,2,1962,105480,34.160562,-118.618329,"5001 MacFarlane Ln, Woodland Hills, CA 91364, USA",438710
10757997,91364,1,2,3,4,2,1958,665000,34.16106,-118.616266,"5024 Calderon Rd, Woodland Hills, CA 91364, USA",418358
10757999,91364,,2,3,4,2,1965,548165,34.161365,-118.615921,"22497 Venido Rd, Woodland Hills, CA 91364, USA",459337
10758006,91364,,4,5,4,4,1961,491810,34.162199,-118.616259,"5051 Calderon Rd, Woodland Hills, CA 91364, USA",1033658
10758128,91364,,3,4,4,3,1962,118522,34.163951,-118.609755,"22228 Miston Dr, Woodland Hills, CA 91364, USA",637642
10758241,91364,1,2,4,4,2,1966,610971,34.158967,-118.620748,"22632 Cavalier St, Woodland Hills, CA 91364, USA",474224
10758285,91364,1,3,4,4,3,1977,464474,34.155934,-118.619991,"4754 Calderon Rd, Woodland Hills, CA 91364, USA",759333
10758316,91364,1,3,4,4,3,1962,752472,34.156885,-118.616808,"4828 Excelente Dr, Woodland Hills, CA 91364, USA",807892
10758317,91364,,2,4,4,2,1956,516977,34.157141,-118.616474,"4856 Reforma Rd, Woodland Hills, CA 91364, USA",525081
10758358,91364,1,4,4,1,4,1995,1064694,34.155833,-118.61434,"4817 Azucena Rd, Woodland Hills, CA 91364, USA",1129302
10758404,91364,1,2,3,4,2,1956,267256,34.155611,-118.615693,"4800 Reforma Rd, Woodland Hills, CA 91364, USA",419497
10758482,91364,1,3,3,4,3,1964,211747,34.153118,-118.62166,"4660 Blackfriar Rd, Woodland Hills, CA 91364, USA",951753
10758502,91364,1,2,3,4,2,1964,386713,34.151535,-118.620507,"23236 Cass Ave, Woodland Hills, CA 91364, USA",562029
10758534,91364,1,3,3,4,3,1964,151335,34.150968,-118.622768,"22736 Margarita Dr, Woodland Hills, CA 91364, USA",623707
10758537,91364,1,2,4,4,2,1963,354895,34.151312,-118.622779,"22742 Margarita Dr, Woodland Hills, CA 91364, USA",518659
10758551,91364,1,3,5,4,3,1962,404073,34.150676,-118.617004,"22566 Margarita Dr, Woodland Hills, CA 91364, USA",743294
10758558,91364,1,3,4,4,3,1962,758209,34.150315,-118.617517,"22569 Mulholland Dr, Woodland Hills, CA 91364, USA",634936
10758576,91364,1,4,4,4,4,1988,705745,34.152194,-118.619959,"22580 Uhea Rd, Woodland Hills, CA 91364, USA",1007796
10758589,91364,1,5,5,1,5,1989,532156,34.152542,-118.617458,"22520 Uhea Rd, Woodland Hills, CA 91364, USA",1074235
10758729,91364,,2,3,4,2,1955,543660,34.15169,-118.610904,"4673 San Feliciano Dr, Woodland Hills, CA 91364, USA",377680
10758886,91364,,2,3,4,2,1959,620613,34.15051,-118.624167,"4345 Manson Ave, Woodland Hills, CA 91364, USA",564147
10758922,91364,1,3,4,4,3,1966,180799,34.149003,-118.621859,"22730 Brenford St, Woodland Hills, CA 91364, USA",648795
10758932,91364,1,3,5,4,3,1970,585516,34.148014,-118.622012,"4390 Charlemont Ave, Woodland Hills, CA 91364, USA",629873
10758933,91364,1,3,5,4,3,1970,569351,34.148145,-118.621691,"4390 Charlemont Ave, Woodland Hills, CA 91364, USA",690745
10758960,91364,1,3,4,4,3,1965,693251,34.147791,-118.620125,"22651 Flamingo St, Woodland Hills, CA 91364, USA",763300
10759013,91364,1,3,3,4,3,1968,427271,34.149223,-118.618123,"22601 Waterbury St, Woodland Hills, CA 91364, USA",837644
10759127,91302,1,2,4,4,2,1964,119368,34.145914,-118.613853,"22315 De Grasse Dr, Calabasas, CA 91302, USA",630849
10759171,91302,1,3,5,4,3,1964,704315,34.145299,-118.612399,"4131 Balcony Dr, Calabasas, CA 91302, USA",700183
10759182,91302,1,2,4,4,2,1964,932394,34.145262,-118.617228,"22523 Paul Revere Dr, Calabasas, CA 91302, USA",704942
10759198,91302,1,3,3,4,3,1968,505134,34.147493,-118.614941,"4315 Freedom Dr, Calabasas, CA 91302, USA",963671
10759274,91302,1,4,5,4,4,1969,554833,34.145126,-118.619528,"22601 Paul Revere Dr, Calabasas, CA 91302, USA",867609
10759278,91302,1,2,4,4,2,1969,422281,34.145101,-118.620561,"22635 Paul Revere Dr, Calabasas, CA 91302, USA",719726
10759299,91302,1,3,3,4,3,1969,129282,34.146483,-118.623015,"4215 Pickney Dr, Calabasas, CA 91302, USA",831481
10759335,91302,1,3,6,4,3,1969,186369,34.147048,-118.625755,"22941 De Kalb Dr, Calabasas, CA 91302, USA",827980
10759361,91364,1,2,3,4,2,1959,681406,34.149188,-118.627374,"22963 Darien St, Woodland Hills, CA 91364, USA",576660
10759390,91364,,2,3,4,2,1959,107170,34.147986,-118.625618,"22909 Ardwick St, Woodland Hills, CA 91364, USA",576654
10759414,91302,1,3,3,4,3,1967,821000,34.144647,-118.627412,"4218 Meadowlark Dr, Calabasas, CA 91302, USA",817145
10759459,91302,1,3,4,4,3,1976,566381,34.14179,-118.629679,"4045 Black Bird Way, Calabasas, CA 91302, USA",766226
10759485,91302,1,3,4,4,3,1978,753966,34.140576,-118.628797,"22959 Hummingbird Way, Calabasas, CA 91302, USA",746112
10759538,91302,1,4,4,4,4,1989,733856,34.141209,-118.627395,"22848 Sparrow Dell Dr, Calabasas, CA 91302, USA",814458
10759622,91302,1,3,3,4,3,1970,490439,34.142865,-118.625255,"4030 Pulido Ct, Calabasas, CA 91302, USA",800982
10759658,91302,1,3,4,4,3,1978,397330,34.142272,-118.628583,"4078 Black Bird Way, Calabasas, CA 91302, USA",940602
10759691,91302,1,3,3,4,3,1969,809441,34.14358,-118.623751,"22742 Town Crier Rd, Calabasas, CA 91302, USA",831345
10759732,91302,1,3,3,4,3,1969,839000,34.14548,-118.624491,"22865 Paul Revere Dr, Calabasas, CA 91302, USA",831394
10759749,91302,1,3,5,4,3,1969,131286,34.143486,-118.623095,"22725 America Way, Calabasas, CA 91302, USA",849533
10759751,91302,1,3,4,4,3,1969,100733,34.14576,-118.625126,"22907 Paul Revere Dr, Calabasas, CA 91302, USA",789961
10759803,91302,1,3,5,4,3,1964,1036500,34.144015,-118.617544,"22514 Founders Dr, Calabasas, CA 91302, USA",801193
10759806,91302,1,2,4,4,2,1964,1027788,34.144627,-118.617412,"22511 Founders Dr, Calabasas, CA 91302, USA",797215
10759860,91302,1,3,4,4,3,1964,152100,34.142789,-118.616148,"22468 Liberty Bell Rd, Calabasas, CA 91302, USA",933237
10759902,91302,1,3,4,4,3,1965,473411,34.140595,-118.619412,"22624 Liberty Bell Rd, Calabasas, CA 91302, USA",822349
10759945,91302,1,3,3,4,3,1968,799500,34.142037,-118.621808,"4041 Schuylkill Dr, Calabasas, CA 91302, USA",859180
10759957,91302,1,3,5,4,3,1966,656114,34.143568,-118.620291,"4047 Bon Homme Rd, Calabasas, CA 91302, USA",844368
10759978,91302,1,3,5,4,3,1978,878862,34.142845,-118.621609,"4103 Schuylkill Dr, Calabasas, CA 91302, USA",968334
10760043,91302,1,3,3,4,3,1964,609807,34.139492,-118.62139,"22734 Liberty Bell Rd, Calabasas, CA 91302, USA",858567
10760054,91302,1,4,4,4,4,1964,905000,34.140133,-118.619158,"22621 Jameson Dr, Calabasas, CA 91302, USA",873918
10760101,91302,1,4,4,4,4,1978,293807,34.141176,-118.614244,"22335 Delia Ct, Calabasas, CA 91302, USA",906324
10760120,91302,1,3,3,4,3,1970,1083000,34.139127,-118.616739,"22455 Dardenne St, Calabasas, CA 91302, USA",1010184
10760152,91302,1,4,5,4,4,1965,142792,34.137021,-118.618833,"3766 Eddingham Ave, Calabasas, CA 91302, USA",957222
10760185,91302,1,2,4,4,2,1972,527047,34.132974,-118.616239,"22414 Galilee St, Calabasas, CA 91302, USA",621121
10760221,91302,1,3,4,4,3,1971,891178,34.134948,-118.616277,"22522 Faubion Pl, Calabasas, CA 91302, USA",675955
10760322,91302,1,3,4,4,3,1965,1015838,34.139297,-118.615595,"22410 Kearny St, Calabasas, CA 91302, USA",866458
10760519,91302,1,4,4,4,4,1965,896133,34.13806,-118.620109,"3836 Eddingham Ave, Calabasas, CA 91302, USA",1240331
10760743,91302,1,9,6,10,9,2001,2550000,34.130188,-118.6145,"3356 Adamsville Ave, Calabasas, CA 91302, USA",3938522
10760799,91335,,2,4,7,2,1954,189171,34.215875,-118.520673,"17751 Strathern St, Reseda, CA 91335, USA",175302
10760877,91335,,2,4,7,2,1954,385793,34.218614,-118.519014,"8139 White Oak Ave, Reseda, CA 91335, USA",155188
10760908,91335,,2,4,7,2,1954,66076,34.219914,-118.519016,"8219 White Oak Ave, Reseda, CA 91335, USA",155195
10760933,91325,,2,4,7,2,1954,56867,34.220631,-118.521001,"17806 Roscoe Blvd, Northridge, CA 91325, USA",96254
10760986,91335,,2,4,7,2,1954,388325,34.217794,-118.521355,"17812 Lanark St, Reseda, CA 91335, USA",161692
10760997,91335,,2,4,7,2,1954,411000,34.215984,-118.521352,"17807 Strathern St, Reseda, CA 91335, USA",155191
10761123,91335,,2,4,7,2,1954,317627,34.219389,-118.523352,"8221 Zelzah Ave, Reseda, CA 91335, USA",309915
10761169,91335,,2,4,7,2,1954,368858,34.22024,-118.523365,"17909 Burton St, Reseda, CA 91335, USA",154543
10761174,91335,,2,4,7,2,1954,398572,34.220225,-118.524358,"17939 Burton St, Reseda, CA 91335, USA",175962
10761261,91335,,2,4,7,2,1954,410000,34.212222,-118.526081,"18027 Ingomar St, Reseda, CA 91335, USA",153169
10761273,91335,,2,4,7,2,1954,57067,34.213445,-118.525648,"7833 Chastain Ave, Reseda, CA 91335, USA",158069
10761307,91335,,2,4,7,2,1954,234095,34.213375,-118.524495,"7854 Chastain Ave, Reseda, CA 91335, USA",175343
10761308,91335,,2,4,7,2,1954,386110,34.213273,-118.524648,"7848 Chastain Ave, Reseda, CA 91335, USA",158118
10761381,91335,,2,4,7,2,1954,186626,34.21519,-118.52298,"7955 Chastain Ave, Reseda, CA 91335, USA",191407
10761461,91335,,2,4,7,2,1954,289297,34.213695,-118.521996,"17833 Hemmingway St, Reseda, CA 91335, USA",253317
10761491,91335,,2,3,7,2,1953,207014,34.213659,-118.519553,"7854 Yarmouth Ave, Reseda, CA 91335, USA",269206
10761570,91325,,2,4,7,2,1954,182117,34.215159,-118.51805,"7945 Jellico Ave, Northridge, CA 91325, USA",91953
10761587,91325,,2,4,7,2,1954,58289,34.215159,-118.51848,"7946 White Oak Ave, Northridge, CA 91325, USA",133873
10761684,91335,,2,3,7,2,1953,237580,34.216136,-118.532223,"18306 Lorne St, Reseda, CA 91335, USA",254883
10761689,91335,,3,5,7,3,1953,73586,34.216137,-118.531215,"18250 Lorne St, Reseda, CA 91335, USA",328277
10761711,91335,,2,3,7,2,1953,388326,34.217156,-118.530226,"8059 Wynne Ave, Reseda, CA 91335, USA",327933
